Straßennummer,Straßenname,Ortsbezirk,Stadtteil Name,Stadtbezirk,Stadtbezirksvorst,Schiedsleutebezirk,Sozialrathaus Name,Polizeirevier,Postleitzahl,Address,Latitude,Longitude,class,type
3083,Abflugring (Flughafen Ffm.),5,Flughafen,327,5.34,5A,Sachsenhausen,19.0,60549,Abflugring (Flughafen Ffm.)* 60549 Frankfurt,50.0522178,8.5789382,highway,way
1,Abtsgäßchen,5,Sachsenhausen-N.,300,5.31,5A,Sachsenhausen,8.0,60594,Abtsgäßchen 60594 Frankfurt,50.1044639,8.6888118,highway,way
2,Achenbachstraße,5,Sachsenhausen-N.,322,5.33,5A,Sachsenhausen,8.0,60596,Achenbachstraße 60596 Frankfurt,50.0974901,8.676911,highway,way
3,Ackermannstraße,1,Gallus,154,1.05,1,Gallus,16.0,60326,Ackermannstraße 60326 Frankfurt,50.1010322,8.6252843,highway,way
4,Adalbert-Stifter-Straße,9,Ginnheim,441,9.67,9,Nord,12.0,60431,Adalbert-Stifter-Straße 60431 Frankfurt,50.1450315,8.663405,highway,way
5,Adalbertstraße,2,Bockenheim,341,2.13,2,Bockenheim,13.0,60486,Adalbertstraße 60486 Frankfurt,50.1190712,8.6435076,highway,way
3229,Adam-Heinstadt-Straße,15,Nieder-Eschbach,670,15.82,15,Nord,14.0,60437,Adam-Heinstadt-Straße 60437 Frankfurt,50.2002416,8.6623236,highway,way
3075,Adam-Leis-Straße,8,Heddernheim,431,8.61,8,Nord,14.0,60439,Adam-Leis-Straße 60439 Frankfurt,50.1653278,8.6377026,highway,way
6,Adam-Opel-Straße,11,Fechenheim,510,11.77,11,Ost,18.0,60386,Adam-Opel-Straße 60386 Frankfurt,50.1244892,8.7573191,highway,way
3449,Adam-Riese-Platz,1,Gallus,152,1.06,1,Gallus,4.0,60327,Adam-Riese-Platz 60327 Frankfurt,50.1064355,8.655850304269492,highway,way
3448,Adam-Riese-Straße,1,Gallus,152,1.06,1,Gallus,4.0,60327,Adam-Riese-Straße 60327 Frankfurt,50.106167,8.6557504,highway,way
7,Adelheidstraße,9,Dornbusch,462,9.69,9,Dornbusch,12.0,60433,Adelheidstraße 60433 Frankfurt,50.1499647,8.6692121,highway,way
8,Adelonstraße,6,Höchst,570,6.44,6C,Höchst,17.0,65929,Adelonstraße 65929 Frankfurt,50.103446,8.5413172,highway,way
9,Adickesallee,3,Nordend-West,203,3.16,3,Dornbusch,3.0,60322,Adickesallee 60322 Frankfurt,50.1321466,8.679578,highway,way
9,Adickesallee,3,Nordend-West,202,3.16,3,Dornbusch,12.0,60320,Adickesallee 60320 Frankfurt,50.1321306,8.6724952,railway,node
10,Adlerflychtplatz,3,Nordend-West,201,3.21,3,Dornbusch,3.0,60318,Adlerflychtplatz 60318 Frankfurt,50.12427725,8.681756760648549,leisure,way
11,Adlerflychtstraße,3,Nordend-West,201,3.21,3,Dornbusch,3.0,60318,Adlerflychtstraße 60318 Frankfurt,50.1237894,8.683888,highway,way
3260,Adlhochplatz,5,Sachsenhausen-N.,324,5.32,5A,Sachsenhausen,8.0,60594,Adlhochplatz 60594 Frankfurt,50.101727249999996,8.686251696450514,highway,way
12,Adolf-Haeuser-Straße,6,Höchst,591,6.46,6C,Höchst,17.0,65929,Adolf-Haeuser-Straße 65929 Frankfurt,50.1020488,8.5425984,amenity,node
2963,Adolf-Leweke-Straße,10,Eckenheim,461,10.72,10,Dornbusch,12.0,60435,Adolf-Leweke-Straße 60435 Frankfurt,50.1531391,8.684761,highway,way
3660,Adolf-Meyer-Straße,12,Kalbach-Riedberg,651,12.79,12,Nord,14.0,60438,Adolf-Meyer-Straße 60438 Frankfurt,50.1783188,8.6207367,highway,way
13,Adolf-Miersch-Straße,5,Niederrad,372,5.36,5B,Sachsenhausen,10.0,60528,Adolf-Miersch-Straße 60528 Frankfurt,50.0831416,8.6432138,highway,way
14,Adolf-Reichwein-Straße,9,Dornbusch,462,9.69,9,Dornbusch,12.0,60320,Adolf-Reichwein-Straße 60320 Frankfurt,50.1438307,8.6739651,highway,way
15,Adolfstraße,5,Niederrad,372,5.36,5B,Sachsenhausen,10.0,60528,Adolfstraße 60528 Frankfurt,50.0837956,8.64647,highway,way
3197,Adolph-Prior-Straße,6,Sossenheim,632,6.54,6C,Höchst,17.0,65936,Adolph-Prior-Straße 65936 Frankfurt,50.129835,8.5815479,highway,way
16,Adolph-von-Holzhausen-Park,3,Nordend-West,203,3.16,3,Dornbusch,3.0,60322,Adolph-von-Holzhausen-Park 60322 Frankfurt,50.1262135,8.678283396307211,leisure,way
18,Affentorplatz,5,Sachsenhausen-N.,300,5.31,5A,Sachsenhausen,8.0,60594,Affentorplatz 60594 Frankfurt,50.104260350000004,8.689667027180581,leisure,way
19,Ahornstraße,6,Griesheim,552,6.41,6A,Gallus,16.0,65933,Ahornstraße 65933 Frankfurt,50.0977096,8.6029078,highway,way
17,Ährenstraße,1,Gutleutviertel,151,1.04,1,Gallus,4.0,60327,Ährenstraße 60327 Frankfurt,50.0956554,8.6412609,highway,way
20,Ahrtalstraße,6,Schwanheim,531,6.38,6A,Sachsenhausen,10.0,60529,Ahrtalstraße 60529 Frankfurt,50.0890212,8.5763673,highway,way
3016,Airportring,5,Flughafen,329,5.34,5A,Sachsenhausen,19.0,60549,Airportring 60549 Frankfurt,50.0403098,8.5327308,amenity,node
21,Akazienstraße,6,Griesheim,552,6.41,6A,Gallus,16.0,65933,Akazienstraße 65933 Frankfurt,50.0989199,8.6008373,highway,way
22,Albanusstraße,6,Höchst,591,6.46,6C,Höchst,17.0,65929,Albanusstraße 65929 Frankfurt,50.1016635,8.5459726,highway,way
23,Albert-Blank-Straße,6,Sindlingen,602,6.48,6B,Höchst,17.0,65931,Albert-Blank-Straße 65931 Frankfurt,50.0852316,8.5085414,highway,way
2752,Albert-Einstein-Straße,15,Nieder-Eschbach,670,15.82,15,Nord,14.0,60437,Albert-Einstein-Straße 60437 Frankfurt,50.2003437,8.6791637,highway,way
24,Albert-Linel-Straße,2,Bockenheim,163,2.15,2,Bockenheim,13.0,60486,Albert-Linel-Straße 60486 Frankfurt,50.1119357,8.6341981,highway,way
2736,Albert-Schweitzer-Straße,15,Nieder-Eschbach,670,15.82,15,Nord,14.0,60437,Albert-Schweitzer-Straße 60437 Frankfurt,50.1998457,8.6677202,highway,way
25,Albusstraße,1,Innenstadt,70,1.01,1,Ost,1.0,60313,Albusstraße 60313 Frankfurt,50.1142526,8.6882302,highway,way
26,Alemannenweg,6,Unterliederbach,622,6.52,6C,Höchst,17.0,65929,Alemannenweg 65929 Frankfurt,50.1143862,8.5396414,highway,way
3118,Alexander-Riese-Weg,8,Heddernheim,431,8.61,8,Nord,14.0,60439,Alexander-Riese-Weg 60439 Frankfurt,50.1589881,8.6518113,highway,way
3753,Alexander-Todd-Straße,8,Niederursel,484,8.63,8,Nord,14.0,60438,Alexander-Todd-Straße 60438 Frankfurt,50.1735402,8.6348681,highway,way
27,Alexanderstraße,7,Rödelheim,402,7.56,7,Bockenheim,11.0,60489,Alexanderstraße 60489 Frankfurt,50.1251415,8.6088387,highway,way
28,Alfred-Brehm-Platz,4,Ostend,140,4.26,4,Ost,5.0,60316,Alfred-Brehm-Platz 60316 Frankfurt,50.1157389,8.6988296,amenity,node
3035,Alfred-Delp-Straße,5,Sachsenhausen-S.,332,5.29,5A,Sachsenhausen,8.0,60599,Alfred-Delp-Straße 60599 Frankfurt,50.0969608,8.7137098,highway,way
2834,Alfred-Göbel-Weg,16,Bergen-Enkheim,680,16.83,16,Ost,18.0,60388,Alfred-Göbel-Weg 60388 Frankfurt,50.1507749,8.7541017,highway,way
3499,Alfred-Kiefer-Weg,6,Schwanheim,532,6.37,6A,Sachsenhausen,10.0,60529,Alfred-Kiefer-Weg 60529 Frankfurt,50.083895,8.6141668,highway,way
3681,Alfred-Pfaff-Straße,11,Seckbach,390,11.75,11,Ost,18.0,60386,Alfred-Pfaff-Straße 60386 Frankfurt,50.1320382,8.7291645,highway,way
3416,Alfred-Wegener-Straße,8,Niederursel,484,8.63,8,Nord,14.0,60438,Alfred-Wegener-Straße 60438 Frankfurt,50.1752152,8.6301526,highway,way
3391,Alkmenestraße,10,Preungesheim,470,10.73,10,Dornbusch,12.0,60435,Alkmenestraße 60435 Frankfurt,50.1518239,8.698589614309213,highway,way
29,Allendorfer Straße,9,Dornbusch,462,9.69,9,Dornbusch,12.0,60433,Allendorfer Straße 60433 Frankfurt,50.1529674,8.6674864,highway,way
30,Allerheiligenstraße,1,Innenstadt,80,1.01,1,Ost,1.0,60313,Allerheiligenstraße 60313 Frankfurt,50.1134816,8.6904755,highway,way
31,Allerheiligentor,1,Innenstadt,70,1.01,1,Ost,1.0,60311,Allerheiligentor 60311 Frankfurt,50.1131852,8.6932046,highway,way
32,Allesinastraße,6,Sindlingen,601,6.47,6B,Höchst,17.0,65931,Allesinastraße 65931 Frankfurt,50.0783735,8.5159303,highway,way
33,Allmeygang,6,Höchst,580,6.45,6C,Höchst,17.0,65929,Allmeygang 65929 Frankfurt,50.099131,8.5480211,highway,way
3295,Alois-Brisbois-Weg,6,Höchst,570,6.44,6C,Höchst,17.0,65929,Alois-Brisbois-Weg 65929 Frankfurt,50.1137347,8.5514776,highway,way
3048,Alois-Eckert-Straße,5,Niederrad,372,5.36,5B,Sachsenhausen,10.0,60528,Alois-Eckert-Straße 60528 Frankfurt,50.078599,8.6430825,highway,way
34,Alpenroder Straße,6,Sossenheim,631,6.53,6C,Höchst,17.0,65936,Alpenroder Straße 65936 Frankfurt,50.1225508,8.5619394,highway,way
35,Alsfelder Straße,11,Seckbach,390,11.75,11,Ost,6.0,60389,Alsfelder Straße 60389 Frankfurt,50.1464027,8.7257586,highway,way
2835,Alt-Bergen,16,Bergen-Enkheim,680,16.83,16,Ost,18.0,60388,Alt-Bergen 60388 Frankfurt,50.1550003,8.7545669,highway,way
36,Alt-Bonames,10,Bonames,491,10.7,10,Nord,14.0,60437,Alt-Bonames 60437 Frankfurt,50.1812811,8.6643351,highway,way
37,Alt-Bornheim,4,Bornheim,272,4.22,4,Ost,6.0,60385,Alt-Bornheim 60385 Frankfurt,50.128628,8.7111922,highway,way
2836,Alt-Enkheim,16,Bergen-Enkheim,680,16.83,16,Ost,18.0,60388,Alt-Enkheim 60388 Frankfurt,50.1495645,8.7534999,highway,way
2637,Alt-Erlenbach,13,Nieder-Erlenbach,640,13.8,13,Nord,14.0,60437,Alt-Erlenbach 60437 Frankfurt,50.2065148,8.7063542,highway,way
53,Alt-Eschersheim,9,Eschersheim,452,9.66,9,Dornbusch,12.0,60433,Alt-Eschersheim 60433 Frankfurt,50.162416,8.6567631,highway,way
58,Alt-Fechenheim,11,Fechenheim,510,11.77,11,Ost,18.0,60386,Alt-Fechenheim 60386 Frankfurt,50.1322585,8.7672372,highway,way
59,Alt-Ginnheim,9,Ginnheim,441,9.67,9,Nord,12.0,60431,Alt-Ginnheim 60431 Frankfurt,50.1445136,8.6488041,highway,way
60,Alt-Griesheim,6,Griesheim,541,6.39,6A,Gallus,16.0,65933,Alt-Griesheim 65933 Frankfurt,50.0910446,8.602779,highway,way
2706,Alt-Harheim,14,Harheim,660,14.81,14,Nord,14.0,60437,Alt-Harheim 60437 Frankfurt,50.1825147,8.6929832,highway,way
61,Alt-Hausen,7,Hausen,410,7.58,7,Bockenheim,11.0,60488,Alt-Hausen 60488 Frankfurt,50.1335355,8.6254481,highway,way
62,Alt-Heddernheim,8,Heddernheim,431,8.61,8,Nord,14.0,60439,Alt-Heddernheim 60439 Frankfurt,50.1560099,8.6474161,highway,way
64,Alt-Höchst,6,Höchst,591,6.46,6C,Höchst,17.0,65929,Alt-Höchst 65929 Frankfurt,50.099587,8.5474746,highway,way
2669,Alt-Kalbach,12,Kalbach-Riedberg,650,12.79,12,Nord,14.0,60437,Alt-Kalbach 60437 Frankfurt,50.1891678,8.6348389,highway,way
66,Alt-Nied,6,Nied,561,6.42,6A,Höchst,16.0,65934,Alt-Nied 65934 Frankfurt,50.0988889,8.5662778,highway,way
2753,Alt-Niedereschbach,15,Nieder-Eschbach,670,15.82,15,Nord,14.0,60437,Alt-Niedereschbach 60437 Frankfurt,50.2011514,8.6738774,highway,way
67,Alt-Niederursel,8,Niederursel,481,8.63,8,Nord,14.0,60439,Alt-Niederursel 60439 Frankfurt,50.1664664,8.6217267,highway,way
68,Alt-Praunheim,7,Praunheim,425,7.6,7,Bockenheim,14.0,60488,Alt-Praunheim 60488 Frankfurt,50.1481574,8.6211212,highway,way
69,Alt-Preungesheim,10,Preungesheim,470,10.73,10,Dornbusch,12.0,60435,Alt-Preungesheim 60435 Frankfurt,50.1549512,8.6878096,highway,way
70,Alt-Rödelheim,7,Rödelheim,402,7.56,7,Bockenheim,11.0,60489,Alt-Rödelheim 60489 Frankfurt,50.1253732,8.6117602,highway,way
71,Alt-Schwanheim,6,Schwanheim,531,6.38,6A,Sachsenhausen,10.0,60529,Alt-Schwanheim 60529 Frankfurt,50.0854655,8.5814878,highway,way
72,Alt-Seckbach,11,Seckbach,390,11.75,11,Ost,6.0,60389,Alt-Seckbach 60389 Frankfurt,50.1456937,8.7263827,highway,way
73,Alt-Sindlingen,6,Sindlingen,601,6.47,6B,Höchst,17.0,65931,Alt-Sindlingen 65931 Frankfurt,50.0809265,8.5191074,highway,way
74,Alt-Sossenheim,6,Sossenheim,632,6.54,6C,Höchst,17.0,65936,Alt-Sossenheim 65936 Frankfurt,50.1197328,8.5666663,highway,way
75,Alt-Zeilsheim,6,Zeilsheim,611,6.49,6B,Höchst,17.0,65931,Alt-Zeilsheim 65931 Frankfurt,50.0964575,8.4904404,highway,way
43,Alte Brücke,5,Sachsenhausen-N.,300,5.31,5A,Sachsenhausen,8.0,60594,Alte Brücke 60594 Frankfurt,50.107379,8.6877596,highway,way
2636,Alte Fahrt,13,Nieder-Erlenbach,640,13.8,13,Nord,14.0,60437,Alte Fahrt 60437 Frankfurt,50.2014224,8.7099306,highway,way
44,Alte Falterstraße,6,Griesheim,541,6.39,6A,Gallus,16.0,65933,Alte Falterstraße 65933 Frankfurt,50.0940598,8.6073087,highway,way
45,Alte Gasse,1,Innenstadt,60,1.02,1,Ost,1.0,60313,Alte Gasse 60313 Frankfurt,50.1169628,8.6858868,highway,way
2737,Alte Hofgasse,15,Nieder-Eschbach,670,15.82,15,Nord,14.0,60437,Alte Hofgasse 60437 Frankfurt,50.2006687,8.6740217,highway,way
47,Alte Mainzer Gasse,1,Altstadt,10,1.01,1,Ost,1.0,60311,Alte Mainzer Gasse 60311 Frankfurt,50.109323,8.6803583,highway,way
49,Alte Niddabrücke,6,Nied,561,6.42,6A,Höchst,16.0,65934,Alte Niddabrücke 65934 Frankfurt,50.1002908,8.5641729,highway,way
3484,Alte Riedbergstraße,12,Kalbach-Riedberg,650,12.79,12,Nord,14.0,60437,Alte Riedbergstraße 60437 Frankfurt,50.1853757,8.6461174,highway,way
51,Alte Rothofstraße,1,Innenstadt,50,1.02,1,Ost,1.0,60313,Alte Rothofstraße 60313 Frankfurt,50.1131153,8.6752023,highway,way
41,Altebergs-Zwerchgäßchen,5,Sachsenhausen-S.,332,5.29,5A,Sachsenhausen,8.0,60599,Altebergs-Zwerchgäßchen 60599 Frankfurt,50.0919603,8.710023,highway,way
38,Altebergsgäßchen I. (Erstes),5,Sachsenhausen-S.,332,5.29,5A,Sachsenhausen,8.0,60599,Altebergsgäßchen I. (Erstes) 60599 Frankfurt,,,,
39,Altebergsgäßchen II. (Zweites),5,Sachsenhausen-S.,332,5.29,5A,Sachsenhausen,8.0,60599,Altebergsgäßchen II. (Zweites) 60599 Frankfurt,,,,
40,Altebergsweg,5,Sachsenhausen-S.,332,5.29,5A,Sachsenhausen,8.0,60599,Altebergsweg 60599 Frankfurt,50.0934015,8.7130553,highway,way
42,Altebornstraße,11,Seckbach,390,11.75,11,Ost,6.0,60389,Altebornstraße 60389 Frankfurt,50.1411673,8.7240997,highway,way
48,Altenburger Weg,6,Zeilsheim,611,6.49,6B,Höchst,17.0,65931,Altenburger Weg 65931 Frankfurt,50.0935373,8.5008782,highway,way
3649,Altenhainer Straße,1,Gallus,162,1.07,1,Gallus,4.0,60326,Altenhainer Straße 60326 Frankfurt,50.1065512,8.6324143,highway,way
3414,Altenhöferallee,8,Niederursel,484,8.63,8,Nord,14.0,60438,Altenhöferallee 60438 Frankfurt,50.1771368,8.6301461,highway,way
3735,Alter Gerichtsplatz,12,Kalbach-Riedberg,651,12.79,12,Nord,14.0,60438,Alter Gerichtsplatz 60438 Frankfurt,50.17714745,8.637048163852041,highway,way
3778,Alter Harheimer Kirchplatz,14,Harheim,660,14.81,14,Nord,14.0,60437,Alter Harheimer Kirchplatz 60437 Frankfurt,50.18220719999999,8.692776127539005,highway,way
52,Alter Schulpfad,6,Nied,561,6.42,6A,Höchst,16.0,65934,Alter Schulpfad 65934 Frankfurt,50.0995548,8.5652867,highway,way
3207,Alter Wartweg,16,Bergen-Enkheim,680,16.83,16,Ost,18.0,60388,Alter Wartweg 60388 Frankfurt,50.1554019,8.7428479,highway,way
57,Altes Schützenhüttengäßchen,5,Sachsenhausen-S.,332,5.29,5A,Sachsenhausen,8.0,60599,Altes Schützenhüttengäßchen 60599 Frankfurt,50.0923478,8.6942108,highway,way
63,Altheimstraße,9,Eschersheim,452,9.66,9,Dornbusch,12.0,60431,Altheimstraße 60431 Frankfurt,50.1555425,8.6554827,highway,way
3507,Altkönigblick,14,Harheim,660,14.81,14,Nord,14.0,60437,Altkönigblick 60437 Frankfurt,50.1880352,8.6942009,highway,way
65,Altkönigstraße,2,Westend-Süd,180,2.1,2,Bockenheim,3.0,60323,Altkönigstraße 60323 Frankfurt,50.1209257,8.665503,highway,way
2738,Altvaterstraße,15,Nieder-Eschbach,670,15.82,15,Nord,14.0,60437,Altvaterstraße 60437 Frankfurt,50.2030214,8.6687217,highway,way
76,Alzeyer Straße,6,Nied,561,6.42,6A,Höchst,16.0,65934,Alzeyer Straße 65934 Frankfurt,50.0973242,8.5755231,highway,way
77,Am Abtshof,6,Schwanheim,531,6.38,6A,Sachsenhausen,10.0,60529,Am Abtshof 60529 Frankfurt,50.0866,8.5812615,highway,way
3380,Am Alten Friedhof,5,Sachsenhausen-N.,324,5.32,5A,Sachsenhausen,8.0,60594,Am Alten Friedhof 60594 Frankfurt,50.1038542,8.686972559807792,leisure,way
79,Am Alten Schloß,8,Praunheim,426,8.62,7,Nord,14.0,60439,Am Alten Schloß 60439 Frankfurt,50.1555179,8.6235523,highway,way
80,Am Alten See,7,Rödelheim,401,7.55,7,Bockenheim,11.0,60489,Am Alten See 60489 Frankfurt,50.1276794,8.6110754,highway,way
3361,Am Alten Volkshaus,11,Riederwald,262,11.76,11,Ost,18.0,60386,Am Alten Volkshaus 60386 Frankfurt,50.1287744,8.7310033,highway,way
81,Am Ameisenberg,4,Bornheim,272,4.22,4,Ost,6.0,60385,Am Ameisenberg 60385 Frankfurt,50.1325033,8.7125437,highway,way
83,Am Atzelberg,11,Seckbach,390,11.75,11,Ost,6.0,60389,Am Atzelberg 60389 Frankfurt,50.1404087,8.7211645,highway,way
84,Am Auerborn,6,Schwanheim,532,6.37,6A,Sachsenhausen,10.0,60529,Am Auerborn 60529 Frankfurt,50.0859628,8.5972513,highway,way
2707,Am Auweg,14,Harheim,660,14.81,14,Nord,14.0,60437,Am Auweg 60437 Frankfurt,50.1808882,8.6900604,highway,way
85,Am Bachberg,10,Preungesheim,470,10.73,10,Dornbusch,12.0,60435,Am Bachberg 60435 Frankfurt,50.1563678,8.688845,highway,way
2837,Am Bächelchen,16,Bergen-Enkheim,680,16.83,16,Ost,18.0,60388,Am Bächelchen 60388 Frankfurt,50.1515039,8.7572931,highway,way
2838,Am Berger Spielhaus,16,Bergen-Enkheim,680,16.83,16,Ost,18.0,60388,Am Berger Spielhaus 60388 Frankfurt,50.1552657,8.7540024,highway,way
2839,Am Bienenstock,16,Bergen-Enkheim,680,16.83,16,Ost,18.0,60388,Am Bienenstock 60388 Frankfurt,50.1554292,8.7585282,highway,way
2638,Am Bier,13,Nieder-Erlenbach,640,13.8,13,Nord,14.0,60437,Am Bier 60437 Frankfurt,50.205834,8.7153895,highway,way
3077,Am Bonifatiusbrunnen,12,Kalbach-Riedberg,651,12.79,12,Nord,14.0,60438,Am Bonifatiusbrunnen 60438 Frankfurt,50.1749502,8.6401116,highway,way
88,Am Börnchen,6,Schwanheim,532,6.37,6A,Sachsenhausen,10.0,60529,Am Börnchen 60529 Frankfurt,50.0847413,8.5943301,highway,way
89,Am Bornheimer Hang,4,Bornheim,281,4.24,4,Ost,6.0,60386,Am Bornheimer Hang 60386 Frankfurt,50.1323078,8.7204484,highway,way
3385,Am Borsdorfer,10,Preungesheim,470,10.73,10,Dornbusch,12.0,60435,Am Borsdorfer 60435 Frankfurt,50.1552613,8.7020387,highway,way
91,Am Brennhaus,6,Griesheim,541,6.39,6A,Gallus,16.0,65933,Am Brennhaus 65933 Frankfurt,50.0936955,8.6102516,highway,way
92,Am Brückengarten,9,Eschersheim,452,9.66,9,Dornbusch,12.0,60431,Am Brückengarten 60431 Frankfurt,50.1575334,8.6537925,highway,way
3008,Am Brünnchen,6,Sossenheim,631,6.53,6C,Höchst,17.0,65936,Am Brünnchen 65936 Frankfurt,50.1163666,8.5676441,highway,way
2670,Am Brunnengarten,12,Kalbach-Riedberg,650,12.79,12,Nord,14.0,60437,Am Brunnengarten 60437 Frankfurt,50.1904561,8.6370557,highway,way
3732,Am Bubeloch,8,Heddernheim,431,8.61,8,Nord,14.0,60439,Am Bubeloch 60439 Frankfurt,,,,
2639,Am Buchbaum,13,Nieder-Erlenbach,640,13.8,13,Nord,14.0,60437,Am Buchbaum 60437 Frankfurt,50.2005483,8.7160369,highway,way
93,Am Buchwald,4,Ostend,252,4.25,4,Ost,5.0,60385,Am Buchwald 60385 Frankfurt,50.1235429,8.7165851,highway,way
3215,Am Bürgerbrunnen,13,Nieder-Erlenbach,640,13.8,13,Nord,14.0,60437,Am Bürgerbrunnen 60437 Frankfurt,50.20271775,8.709223558647544,highway,way
94,Am Burghof,10,Bonames,491,10.7,10,Nord,14.0,60437,Am Burghof 60437 Frankfurt,50.1809187,8.662758,highway,way
3137,Am Büttelstück,11,Seckbach,390,11.75,11,Ost,18.0,60388,Am Büttelstück 60388 Frankfurt,50.1386289,8.7305132,highway,way
95,Am Dachsberg,10,Berkersheim,500,10.74,10,Nord,14.0,60435,Am Dachsberg 60435 Frankfurt,50.1672833,8.6943206,highway,way
96,Am Dammgraben,2,Bockenheim,163,2.15,2,Bockenheim,13.0,60486,Am Dammgraben 60486 Frankfurt,50.1105785,8.6321839,highway,way
97,Am Dorfgarten,10,Preungesheim,470,10.73,10,Dornbusch,12.0,60435,Am Dorfgarten 60435 Frankfurt,50.1554688,8.6923506,highway,way
98,Am Dornbusch,2,Westend-Nord,192,2.09,2,Dornbusch,12.0,60320,Am Dornbusch 60320 Frankfurt,50.1386188,8.6701407,highway,way
99,Am Ebelfeld,7,Praunheim,422,7.59,7,Bockenheim,14.0,60488,Am Ebelfeld 60488 Frankfurt,50.1447672,8.6140381,highway,way
100,Am Eckenheimer Friedhof,10,Eckenheim,461,10.72,10,Dornbusch,12.0,60435,Am Eckenheimer Friedhof 60435 Frankfurt,50.1512084,8.6814169,highway,way
2640,Am Eichbaum,13,Nieder-Erlenbach,640,13.8,13,Nord,14.0,60437,Am Eichbaum 60437 Frankfurt,50.20201,8.7150601,highway,way
101,Am Eichenloh,9,Ginnheim,441,9.67,9,Nord,12.0,60431,Am Eichenloh 60431 Frankfurt,50.1397361,8.6470835,highway,way
102,Am Eisernen Schlag,9,Ginnheim,441,9.67,9,Nord,12.0,60431,Am Eisernen Schlag 60431 Frankfurt,50.139648,8.6501691,highway,way
2998,Am Eiswerk,16,Bergen-Enkheim,680,16.83,16,Ost,18.0,60388,Am Eiswerk 60388 Frankfurt,50.1502999,8.7614706,highway,way
103,Am Elektrizitätswerk,1,Gutleutviertel,151,1.04,1,Gallus,4.0,60327,Am Elektrizitätswerk 60327 Frankfurt,50.0981291,8.6515845,highway,way
104,Am Ellerfeld,7,Hausen,410,7.58,7,Bockenheim,11.0,60488,Am Ellerfeld 60488 Frankfurt,50.1346318,8.6279399,highway,way
3394,Am Enkheimer Steg,11,Seckbach,390,11.75,11,Ost,6.0,60388,Am Enkheimer Steg 60388 Frankfurt,50.138418,8.7265272,highway,way
2708,Am Entenpfad,14,Harheim,660,14.81,14,Nord,14.0,60437,Am Entenpfad 60437 Frankfurt,50.1850236,8.6907333,highway,way
105,Am Erlenbruch,4,Bornheim,281,4.24,4,Ost,6.0,60386,Am Erlenbruch 60386 Frankfurt,50.1316606,8.7406402,highway,way
2709,Am Eschbachtal,14,Harheim,660,14.81,14,Nord,14.0,60437,Am Eschbachtal 60437 Frankfurt,50.1856657,8.6937813,highway,way
3610,Am Eschersheimer Abtshof,9,Eschersheim,451,9.65,9,Dornbusch,12.0,60433,Am Eschersheimer Abtshof 60433 Frankfurt,50.1588748,8.6544229,highway,way
107,Am Faulbrunnen,6,Sossenheim,631,6.53,6C,Höchst,17.0,65936,Am Faulbrunnen 65936 Frankfurt,50.1186742,8.5658491,highway,way
3707,Am Felsenkeller,5,Sachsenhausen-S.,332,5.29,5A,Sachsenhausen,8.0,60599,Am Felsenkeller 60599 Frankfurt,50.0980358,8.695813,highway,way
108,Am Fischstein,7,Hausen,410,7.58,7,Bockenheim,11.0,60488,Am Fischstein 60488 Frankfurt,50.1305952,8.62491,highway,way
108,Am Fischstein,7,Bockenheim,343,7.57,2,Bockenheim,11.0,60487,Am Fischstein 60487 Frankfurt,50.1287173,8.6230841,highway,way
109,Am Fischwehr,11,Fechenheim,510,11.77,11,Ost,18.0,60386,Am Fischwehr 60386 Frankfurt,50.1238921,8.7696162,highway,way
3626,Am Flughafen,5,Flughafen,329,5.34,5A,Sachsenhausen,19.0,60549,Am Flughafen 60549 Frankfurt,50.0540704,8.5752451,highway,way
2964,Am Försterpfad,6,Schwanheim,532,6.37,6A,Sachsenhausen,10.0,60529,Am Försterpfad 60529 Frankfurt,50.0783314,8.6039539,highway,way
110,Am Forum,8,Heddernheim,432,8.62,8,Nord,14.0,60439,Am Forum 60439 Frankfurt,50.1542953,8.6386931,highway,way
3336,Am Gabelacker,9,Eschersheim,451,9.65,9,Dornbusch,12.0,60433,Am Gabelacker 60433 Frankfurt,50.1622188,8.6662934,highway,way
2597,Am Galgen (Wohnplatz),11,Seckbach,390,11.75,11,Ost,6.0,60389,Am Galgen (Wohnplatz) 60389 Frankfurt,,,,
3307,Am Galgenberg,4,Bornheim,272,4.22,4,Ost,6.0,60385,Am Galgenberg 60385 Frankfurt,50.1372349,8.7140444,highway,way
3307,Am Galgenberg,4,Bornheim,272,4.22,4,Ost,6.0,60389,Am Galgenberg 60389 Frankfurt,50.1372349,8.7140444,highway,way
3307,Am Galgenberg,4,Bornheim,290,4.22,4,Ost,6.0,60386,Am Galgenberg 60386 Frankfurt,50.1372349,8.7140444,highway,way
111,Am Gansbühel,11,Fechenheim,510,11.77,11,Ost,18.0,60386,Am Gansbühel 60386 Frankfurt,50.1273271,8.7663143,highway,way
112,Am Geistpförtchen,1,Altstadt,10,1.01,1,Ost,1.0,60311,Am Geistpförtchen 60311 Frankfurt,50.109541,8.6838542,highway,way
113,Am Gemeindegarten,6,Griesheim,541,6.39,6A,Gallus,16.0,65933,Am Gemeindegarten 65933 Frankfurt,50.0939391,8.6084568,highway,way
3027,Am Ginnheimer Hang,9,Ginnheim,441,9.67,9,Nord,12.0,60431,Am Ginnheimer Hang 60431 Frankfurt,50.1462664,8.6473793,highway,way
3145,Am Ginnheimer Wäldchen,9,Ginnheim,441,9.67,9,Nord,14.0,60431,Am Ginnheimer Wäldchen 60431 Frankfurt,50.1452802,8.6437726,highway,way
2932,Am Gisisberg (Wohnplatz),16,Bergen-Enkheim,680,16.83,16,Ost,18.0,60388,Am Gisisberg (Wohnplatz) 60388 Frankfurt,,,,
114,Am Goldsteinpark,6,Schwanheim,532,6.37,6A,Sachsenhausen,10.0,60529,Am Goldsteinpark 60529 Frankfurt,50.0833264,8.6085195,highway,way
115,Am Graben,6,Schwanheim,531,6.38,6A,Sachsenhausen,10.0,60529,Am Graben 60529 Frankfurt,50.0853682,8.5822013,highway,way
117,Am Großen Berge,9,Ginnheim,441,9.67,9,Nord,12.0,60431,Am Großen Berge 60431 Frankfurt,50.1381688,8.650989,highway,way
118,Am Grünen Graben,9,Eschersheim,451,9.65,9,Dornbusch,12.0,60433,Am Grünen Graben 60433 Frankfurt,50.1640952,8.6566051,highway,way
119,Am Grünhof,2,Westend-Nord,192,2.09,2,Dornbusch,12.0,60320,Am Grünhof 60320 Frankfurt,50.1358908,8.6701662,highway,way
2840,Am Günthersbrunnen,16,Bergen-Enkheim,680,16.83,16,Ost,18.0,60388,Am Günthersbrunnen 60388 Frankfurt,50.1562038,8.7545472,highway,way
2671,Am Hang,12,Kalbach-Riedberg,650,12.79,12,Nord,14.0,60437,Am Hang 60437 Frankfurt,50.1867931,8.6476799,highway,way
2672,Am Hasensprung,12,Kalbach-Riedberg,650,12.79,12,Nord,14.0,60437,Am Hasensprung 60437 Frankfurt,50.1852486,8.637313,highway,way
120,Am Hauptbahnhof,1,Gallus,152,1.06,1,Gallus,4.0,60329,Am Hauptbahnhof 60329 Frankfurt,50.1071922,8.6653033,highway,way
3755,Am Heddernheimer Gaswerk,8,Heddernheim,431,8.61,8,Nord,14.0,60439,Am Heddernheimer Gaswerk 60439 Frankfurt,,,,
3705,Am Henninger Turm,5,Sachsenhausen-S.,332,5.29,5A,Sachsenhausen,8.0,60599,Am Henninger Turm 60599 Frankfurt,50.0970614,8.6963531,highway,way
121,Am Hennsee,11,Fechenheim,520,11.78,11,Ost,18.0,60386,Am Hennsee 60386 Frankfurt,50.123112,8.7675192,highway,way
122,Am Herrenhof,10,Berkersheim,500,10.74,10,Nord,14.0,60435,Am Herrenhof 60435 Frankfurt,50.1723199,8.6954752,highway,way
2842,Am Hessen-Center,16,Bergen-Enkheim,680,16.83,16,Ost,18.0,60388,Am Hessen-Center 60388 Frankfurt,50.1422701,8.7527603,highway,way
2841,Am Hessenborn,16,Bergen-Enkheim,680,16.83,16,Ost,18.0,60388,Am Hessenborn 60388 Frankfurt,50.1533071,8.7497302,highway,way
3598,Am Himmerich,12,Kalbach-Riedberg,651,12.79,12,Nord,14.0,60438,Am Himmerich 60438 Frankfurt,50.1794526,8.6283177,highway,way
2609,Am Hirtenacker,7,Hausen,410,7.58,7,Bockenheim,11.0,60488,Am Hirtenacker 60488 Frankfurt,50.1388355,8.6223275,highway,way
123,Am Hochwehr,9,Ginnheim,441,9.67,9,Nord,12.0,60431,Am Hochwehr 60431 Frankfurt,50.1431522,8.6535016,highway,way
124,Am Hofgut,7,Praunheim,422,7.59,7,Bockenheim,14.0,60488,Am Hofgut 60488 Frankfurt,50.1467371,8.6132256,highway,way
2803,Am Hofgut Goldstein,6,Schwanheim,532,6.37,6A,Sachsenhausen,10.0,60529,Am Hofgut Goldstein 60529 Frankfurt,50.084014550000006,8.613834654026942,highway,way
3306,Am Hohen Markstein,4,Bornheim,272,4.22,4,Ost,6.0,60389,Am Hohen Markstein 60389 Frankfurt,50.1374441,8.7103986,highway,way
126,Am Hohen Weg,7,Hausen,410,7.58,7,Bockenheim,11.0,60488,Am Hohen Weg 60488 Frankfurt,50.1354626,8.6253061,highway,way
2598,Am Hohlacker,10,Berkersheim,500,10.74,10,Nord,14.0,60435,Am Hohlacker 60435 Frankfurt,50.1730096,8.6987784,highway,way
3334,Am Höhstock,9,Eschersheim,451,9.65,9,Dornbusch,12.0,60433,Am Höhstock 60433 Frankfurt,50.163016,8.6644662,highway,way
3280,Am Höllenberg,12,Kalbach-Riedberg,650,12.79,12,Nord,14.0,60437,Am Höllenberg 60437 Frankfurt,50.1865126,8.6337032,highway,way
2754,Am Hollerbusch,15,Nieder-Eschbach,670,15.82,15,Nord,14.0,60437,Am Hollerbusch 60437 Frankfurt,50.1961069,8.6708705,highway,way
3053,Am Hollgraben,16,Bergen-Enkheim,680,16.83,16,Ost,18.0,60388,Am Hollgraben 60388 Frankfurt,50.1584926,8.7674171,highway,way
3006,Am Höllsteg,13,Nieder-Erlenbach,640,13.8,13,Nord,14.0,60437,Am Höllsteg 60437 Frankfurt,50.2070479,8.7092061,highway,way
128,Am Honigberg,10,Berkersheim,500,10.74,10,Nord,14.0,60435,Am Honigberg 60435 Frankfurt,50.1715311,8.6971445,highway,way
2673,Am Hopfenbrunnen,12,Kalbach-Riedberg,650,12.79,12,Nord,14.0,60437,Am Hopfenbrunnen 60437 Frankfurt,50.1907431,8.6348074,highway,way
129,Am Hopfengarten,7,Rödelheim,402,7.56,7,Bockenheim,11.0,60489,Am Hopfengarten 60489 Frankfurt,50.1228241,8.6086605,highway,way
130,Am Hühnerberg,6,Nied,561,6.42,6A,Höchst,17.0,65934,Am Hühnerberg 65934 Frankfurt,50.1015431,8.5628144,highway,way
131,Am Industriehof,7,Bockenheim,343,7.57,2,Bockenheim,11.0,60487,Am Industriehof 60487 Frankfurt,50.1296431,8.623097,highway,way
3389,Am Jessenapfel,10,Preungesheim,470,10.73,10,Dornbusch,12.0,60435,Am Jessenapfel 60435 Frankfurt,50.1548708,8.7002618,highway,way
3031,Am Kalten Berg,10,Berkersheim,500,10.74,10,Nord,14.0,60435,Am Kalten Berg 60435 Frankfurt,50.1705466,8.6968115,highway,way
132,Am Kapellenberg,6,Sossenheim,631,6.53,6C,Höchst,17.0,65936,Am Kapellenberg 65936 Frankfurt,50.1177294,8.5621063,highway,way
133,Am Kappelgarten,11,Seckbach,390,11.75,11,Ost,6.0,60389,Am Kappelgarten 60389 Frankfurt,50.146939599999996,8.728499249681976,highway,way
2978,Am Kiesberg,6,Schwanheim,532,6.37,6A,Sachsenhausen,10.0,60529,Am Kiesberg 60529 Frankfurt,50.0835149,8.6017667,highway,way
134,Am Kirchberg,9,Eschersheim,452,9.66,9,Dornbusch,12.0,60431,Am Kirchberg 60431 Frankfurt,50.1551301,8.6556329,highway,way
135,Am Kirchholz,6,Schwanheim,531,6.38,6A,Sachsenhausen,10.0,60529,Am Kirchholz 60529 Frankfurt,50.0844992,8.5827849,highway,way
3384,Am Klarapfel,10,Preungesheim,470,10.73,10,Dornbusch,12.0,60435,Am Klarapfel 60435 Frankfurt,50.1555958,8.7000204,highway,way
2641,Am Klingelborn,13,Nieder-Erlenbach,640,13.8,13,Nord,14.0,60437,Am Klingelborn 60437 Frankfurt,50.1981013,8.7163769,highway,way
2843,Am Königshof,16,Bergen-Enkheim,680,16.83,16,Ost,18.0,60388,Am Königshof 60388 Frankfurt,50.1545772,8.7557053,highway,way
136,Am Köstrich,7,Rödelheim,401,7.55,7,Bockenheim,11.0,60489,Am Köstrich 60489 Frankfurt,50.1264689,8.6127183,highway,way
137,Am Kreuz,6,Sossenheim,632,6.54,6C,Höchst,17.0,65936,Am Kreuz 65936 Frankfurt,50.1214739,8.5671075,highway,way
138,Am Kunzengarten,6,Sossenheim,632,6.54,6C,Höchst,17.0,65936,Am Kunzengarten 65936 Frankfurt,50.1203281,8.5683871,highway,way
139,Am Lachgraben,6,Sindlingen,601,6.47,6B,Höchst,17.0,65931,Am Lachgraben 65931 Frankfurt,50.08528,8.5157846,highway,way
3313,Am Lausberg,10,Preungesheim,470,10.73,10,Dornbusch,12.0,60435,Am Lausberg 60435 Frankfurt,50.158435,8.6935979,highway,way
2755,Am Lehenweg,15,Nieder-Eschbach,670,15.82,15,Nord,14.0,60437,Am Lehenweg 60437 Frankfurt,50.1989348,8.675072,highway,way
141,Am Leinritt,11,Fechenheim,520,11.78,11,Ost,18.0,60386,Am Leinritt 60386 Frankfurt,50.1234878,8.7710386,highway,way
142,Am Leisrain,6,Sossenheim,631,6.53,6C,Höchst,17.0,65936,Am Leisrain 65936 Frankfurt,50.1120204,8.5547758,highway,way
143,Am Leonhardsbrunn,2,Bockenheim,362,2.12,2,Bockenheim,13.0,60487,Am Leonhardsbrunn 60487 Frankfurt,50.1270489,8.6530184,highway,way
144,Am Leonhardstor,1,Altstadt,10,1.01,1,Ost,1.0,60311,Am Leonhardstor 60311 Frankfurt,50.108958,8.6798111,highway,way
145,Am Lindenbaum,9,Eschersheim,452,9.66,9,Dornbusch,12.0,60433,Am Lindenbaum 60433 Frankfurt,50.1552184,8.665749,highway,way
146,Am Lindenfeld,6,Griesheim,552,6.41,6A,Gallus,16.0,65933,Am Lindenfeld 65933 Frankfurt,50.1028546,8.5953138,highway,way
147,Am Lohrberg,11,Seckbach,390,11.75,11,Ost,6.0,60389,Am Lohrberg 60389 Frankfurt,50.1462843,8.7235087,highway,way
2982,Am Lohwald,7,Hausen,410,7.58,7,Bockenheim,11.0,60488,Am Lohwald 60488 Frankfurt,50.1390283,8.6253006,highway,way
3562,Am Luftbrückendenkmal,5,Flughafen,329,5.34,5A,Sachsenhausen,19.0,60549,Am Luftbrückendenkmal 60549 Frankfurt,50.0338289,8.5918885,highway,way
148,Am Mainbörnchen,11,Fechenheim,520,11.78,11,Ost,18.0,60386,Am Mainbörnchen 60386 Frankfurt,50.1217863,8.7725215,highway,way
149,Am Mainplacken,6,Nied,561,6.42,6A,Höchst,16.0,65934,Am Mainplacken 65934 Frankfurt,50.0983745,8.571382,highway,way
2674,Am Markstein,12,Kalbach-Riedberg,650,12.79,12,Nord,14.0,60437,Am Markstein 60437 Frankfurt,50.1853867,8.6324605,highway,way
2945,Am Martinszehnten,12,Kalbach-Riedberg,650,12.79,12,Nord,14.0,60437,Am Martinszehnten 60437 Frankfurt,50.190727,8.6532529,highway,way
2844,Am Michlersbrunnen,16,Bergen-Enkheim,680,16.83,16,Ost,18.0,60388,Am Michlersbrunnen 60388 Frankfurt,50.1564272,8.7556129,highway,way
2845,Am Mispelbusch,16,Bergen-Enkheim,680,16.83,16,Ost,18.0,60388,Am Mispelbusch 60388 Frankfurt,50.1541706,8.7611196,highway,way
3122,Am Mittelpfad,13,Nieder-Erlenbach,640,13.8,13,Nord,14.0,60437,Am Mittelpfad 60437 Frankfurt,50.208695,8.7022084,highway,way
151,Am Mühlgarten,9,Ginnheim,441,9.67,9,Nord,12.0,60431,Am Mühlgarten 60431 Frankfurt,50.1455388,8.651041,highway,way
152,Am Mühlgewann,6,Griesheim,542,6.4,6A,Gallus,16.0,65933,Am Mühlgewann 65933 Frankfurt,50.0968732,8.6108605,highway,way
153,Am Mühlkanal,5,Sachsenhausen-S.,332,5.29,5A,Sachsenhausen,8.0,60599,Am Mühlkanal 60599 Frankfurt,50.1007539,8.7010406,highway,way
2977,Am Naßgewann (Liederbach),6,Unterliederbach,623,6.51,6C,Höchst,17.0,65929,Am Naßgewann (Liederbach) 65929 Frankfurt,,,,
154,Am Neuenberg,10,Berkersheim,500,10.74,10,Nord,14.0,60435,Am Neuenberg 60435 Frankfurt,50.1659758,8.6900947,highway,way
155,Am Neufeld,6,Griesheim,542,6.4,6A,Gallus,16.0,65933,Am Neufeld 65933 Frankfurt,50.1121243,8.597403,highway,way
2606,Am Niddatal,7,Hausen,410,7.58,7,Bockenheim,11.0,60488,Am Niddatal 60488 Frankfurt,50.1379947,8.6192673,highway,way
157,Am Niedwald,6,Griesheim,542,6.4,6A,Gallus,16.0,65933,Am Niedwald 65933 Frankfurt,50.1114939,8.5955116,highway,way
3312,Am Nonnenhof,10,Preungesheim,470,10.73,10,Dornbusch,12.0,60435,Am Nonnenhof 60435 Frankfurt,50.1562297,8.6934818,highway,way
158,Am Oberforsthaus,5,Sachsenhausen-S.,325,5.34,5A,Sachsenhausen,10.0,60528,Am Oberforsthaus 60528 Frankfurt,50.0788855,8.6574495,highway,way
2675,Am Oberschlag,12,Kalbach-Riedberg,650,12.79,12,Nord,14.0,60437,Am Oberschlag 60437 Frankfurt,50.1882481,8.6463694,highway,way
2957,Am Ohlenstück,13,Nieder-Erlenbach,640,13.8,13,Nord,14.0,60437,Am Ohlenstück 60437 Frankfurt,50.2037126,8.7032808,highway,way
162,Am Pfingstlohr,11,Seckbach,390,11.75,11,Ost,6.0,60389,Am Pfingstlohr 60389 Frankfurt,50.1502693,8.7250335,highway,way
3056,Am Pohlsberg,16,Bergen-Enkheim,680,16.83,16,Ost,18.0,60388,Am Pohlsberg 60388 Frankfurt,50.1577731,8.7669566,highway,way
2628,Am Poloplatz,5,Niederrad,373,5.36,5B,Sachsenhausen,10.0,60528,Am Poloplatz 60528 Frankfurt,50.0742133,8.6400137,highway,way
163,Am Posthorn,2,Bockenheim,344,2.14,2,Bockenheim,11.0,60486,Am Posthorn 60486 Frankfurt,50.1198835,8.6198509,highway,way
2846,Am Rebenborn,16,Bergen-Enkheim,680,16.83,16,Ost,18.0,60388,Am Rebenborn 60388 Frankfurt,50.152006,8.7473203,highway,way
3431,Am Reinhardshof,13,Nieder-Erlenbach,640,13.8,13,Nord,14.0,60437,Am Reinhardshof 60437 Frankfurt,50.2069148,8.7052307,highway,way
164,Am Riederbruch,11,Riederwald,262,11.76,11,Ost,18.0,60386,Am Riederbruch 60386 Frankfurt,50.125941,8.7249403,highway,way
3140,Am Riedgraben,4,Bornheim,290,4.22,4,Ost,6.0,60386,Am Riedgraben 60386 Frankfurt,50.1391591,8.7281143,highway,way
3254,Am Riedsteg,13,Nieder-Erlenbach,640,13.8,13,Nord,14.0,60437,Am Riedsteg 60437 Frankfurt,50.2101848,8.7032454,highway,way
165,Am Rödelheimer Wehr,7,Rödelheim,401,7.55,7,Bockenheim,11.0,60489,Am Rödelheimer Wehr 60489 Frankfurt,50.1247761,8.6132083,highway,way
2710,Am Römerbrunnen,14,Harheim,660,14.81,14,Nord,14.0,60437,Am Römerbrunnen 60437 Frankfurt,50.1865131,8.701021,highway,way
166,Am Römerhof,2,Bockenheim,163,2.15,2,Bockenheim,13.0,60486,Am Römerhof 60486 Frankfurt,50.1153157,8.6286262,highway,way
168,Am Rosenberg,6,Nied,561,6.42,6A,Höchst,17.0,65934,Am Rosenberg 65934 Frankfurt,50.1027388,8.5592742,highway,way
169,Am Rosengarten,6,Nied,561,6.42,6A,Höchst,16.0,65934,Am Rosengarten 65934 Frankfurt,50.0987985,8.5728579,highway,way
170,Am Roten Graben,11,Fechenheim,510,11.77,11,Ost,18.0,60386,Am Roten Graben 60386 Frankfurt,50.1390089,8.7756341,amenity,node
167,Am Rötheneck,4,Bornheim,272,4.22,4,Ost,6.0,60385,Am Rötheneck 60385 Frankfurt,50.1323319,8.7115426,highway,way
172,Am Ruhestein,6,Schwanheim,532,6.37,6A,Sachsenhausen,10.0,60529,Am Ruhestein 60529 Frankfurt,50.0856919,8.5987981,highway,way
171,Am Rütschlehen,11,Fechenheim,510,11.77,11,Ost,18.0,60386,Am Rütschlehen 60386 Frankfurt,50.1250216,8.7624785,highway,way
173,Am Saalenbusch,11,Fechenheim,510,11.77,11,Ost,18.0,60386,Am Saalenbusch 60386 Frankfurt,50.1251537,8.7639482,highway,way
2994,Am Salusbach,6,Sossenheim,632,6.54,6C,Höchst,17.0,65936,Am Salusbach 65936 Frankfurt,50.1198864,8.568888,highway,way
174,Am Salzhaus,1,Innenstadt,40,1.03,1,Ost,1.0,60311,Am Salzhaus 60311 Frankfurt,50.1119432,8.6771759,highway,way
2088,Am Sandberg,5,Sachsenhausen-S.,332,5.29,5A,Sachsenhausen,8.0,60599,Am Sandberg 60599 Frankfurt,50.0937605,8.6996339,highway,way
2642,Am Satz,13,Nieder-Erlenbach,640,13.8,13,Nord,14.0,60437,Am Satz 60437 Frankfurt,50.2059149,8.715691,highway,way
3136,Am Sausee,11,Seckbach,390,11.75,11,Ost,6.0,60388,Am Sausee 60388 Frankfurt,50.1354928,8.7273378,highway,way
3136,Am Sausee,11,Seckbach,390,11.75,11,Ost,18.0,60386,Am Sausee 60386 Frankfurt,50.1354928,8.7273378,highway,way
176,Am Schieferstein,10,Berkersheim,500,10.74,10,Nord,14.0,60435,Am Schieferstein 60435 Frankfurt,50.1660738,8.6913509,highway,way
177,Am Schießrain,11,Seckbach,390,11.75,11,Ost,6.0,60389,Am Schießrain 60389 Frankfurt,50.1443444,8.7282552,highway,way
3282,Am Schlittenberg,12,Kalbach-Riedberg,650,12.79,12,Nord,14.0,60437,Am Schlittenberg 60437 Frankfurt,50.1853384,8.6358975,highway,way
178,Am Schwalbenschwanz,9,Dornbusch,442,9.68,9,Dornbusch,12.0,60431,Am Schwalbenschwanz 60431 Frankfurt,50.1503979,8.6633662,highway,way
3154,Am Seckbacher Preul,11,Seckbach,390,11.75,11,Ost,6.0,60389,Am Seckbacher Preul 60389 Frankfurt,50.1423437,8.729004,highway,way
3156,Am Seckbacher Ried,11,Seckbach,390,11.75,11,Ost,6.0,60388,Am Seckbacher Ried 60388 Frankfurt,50.1442578,8.7399835,highway,way
2954,Am Seedamm,7,Rödelheim,402,7.56,7,Bockenheim,11.0,60489,Am Seedamm 60489 Frankfurt,50.1279018,8.5994928,highway,way
181,Am Selzerbrunnen,6,Nied,562,6.43,6A,Höchst,16.0,65934,Am Selzerbrunnen 65934 Frankfurt,50.1078685,8.5813474,highway,way
182,Am Siechen,6,Schwanheim,531,6.38,6A,Sachsenhausen,10.0,60529,Am Siechen 60529 Frankfurt,50.0853447,8.5754143,highway,way
3004,Am Siegesbaum,13,Nieder-Erlenbach,640,13.8,13,Nord,14.0,60437,Am Siegesbaum 60437 Frankfurt,50.2061353,8.7073059,highway,way
185,Am Spritzenhaus,7,Hausen,410,7.58,7,Bockenheim,11.0,60488,Am Spritzenhaus 60488 Frankfurt,50.1323816,8.6227332,highway,way
2740,Am Sprudel,15,Nieder-Eschbach,670,15.82,15,Nord,14.0,60437,Am Sprudel 60437 Frankfurt,50.1994095,8.6777735,highway,way
187,Am Städelshof,1,Innenstadt,70,1.01,1,Ost,1.0,60311,Am Städelshof 60311 Frankfurt,,,,
186,Am Stadtpark,6,Höchst,580,6.45,6C,Höchst,17.0,65929,Am Stadtpark 65929 Frankfurt,50.1092449,8.5577976,highway,way
2643,Am Steinberg,13,Nieder-Erlenbach,640,13.8,13,Nord,14.0,60437,Am Steinberg 60437 Frankfurt,50.2021415,8.7137339,highway,way
188,Am Steinernen Kreuz,6,Griesheim,542,6.4,6A,Gallus,16.0,65933,Am Steinernen Kreuz 65933 Frankfurt,50.1023268,8.5977985,highway,way
189,Am Steinernen Stock,9,Dornbusch,463,9.69,9,Dornbusch,12.0,60320,Am Steinernen Stock 60320 Frankfurt,50.1373178,8.6807674,highway,way
191,Am Stiegelschlag,4,Bornheim,272,4.22,4,Ost,6.0,60385,Am Stiegelschlag 60385 Frankfurt,50.1326733,8.7149694,highway,way
192,Am Stockborn,8,Praunheim,426,8.62,7,Nord,14.0,60439,Am Stockborn 60439 Frankfurt,50.1540004,8.6249843,highway,way
193,Am Strandbad Höchst,6,Höchst,580,6.45,6C,Höchst,17.0,65934,Am Strandbad Höchst 65934 Frankfurt,50.1067771,8.5626699,highway,way
195,Am Tiergarten,4,Ostend,251,4.25,4,Ost,5.0,60316,Am Tiergarten 60316 Frankfurt,50.1145178,8.7026883,highway,way
196,Am Traubengarten,10,Berkersheim,500,10.74,10,Nord,14.0,60435,Am Traubengarten 60435 Frankfurt,50.1744688,8.6962748,highway,way
197,Am Treutengraben,7,Praunheim,424,7.6,7,Bockenheim,14.0,60488,Am Treutengraben 60488 Frankfurt,50.1422813,8.6228033,highway,way
199,Am Ulmenrück,10,Frankfurter Berg,492,10.71,10,Nord,14.0,60433,Am Ulmenrück 60433 Frankfurt,50.1675808,8.6855828,highway,way
3638,Am Ulmenstückweg,11,Seckbach,390,11.75,11,Ost,6.0,60388,Am Ulmenstückweg 60388 Frankfurt,50.1397679,8.7254276,highway,way
3638,Am Ulmenstückweg,11,Seckbach,390,11.75,11,Ost,6.0,60389,Am Ulmenstückweg 60389 Frankfurt,50.1397679,8.7254276,highway,way
200,Am Urselbach,8,Niederursel,481,8.63,8,Nord,14.0,60439,Am Urselbach 60439 Frankfurt,50.1685912,8.6203339,highway,way
2847,Am Villaberg,16,Bergen-Enkheim,680,16.83,16,Ost,18.0,60388,Am Villaberg 60388 Frankfurt,50.1534271,8.7534802,highway,way
2848,Am Vogelherd,16,Bergen-Enkheim,680,16.83,16,Ost,18.0,60388,Am Vogelherd 60388 Frankfurt,50.1540371,8.7521742,highway,way
2849,Am Waldacker,16,Bergen-Enkheim,680,16.83,16,Ost,18.0,60388,Am Waldacker 60388 Frankfurt,50.142664,8.7515536,highway,way
3298,Am Wäldchen,6,Höchst,570,6.44,6C,Höchst,17.0,65929,Am Wäldchen 65929 Frankfurt,50.1129926,8.5493509,highway,way
2966,Am Waldgraben,6,Schwanheim,532,6.37,6A,Sachsenhausen,10.0,60529,Am Waldgraben 60529 Frankfurt,50.0785865,8.6055234,highway,way
3542,Am Wasserpark,3,Nordend-Ost,222,3.18,3,Ost,6.0,60389,Am Wasserpark 60389 Frankfurt,50.1378849,8.6994519,highway,way
3706,Am Wassertempel,5,Sachsenhausen-S.,332,5.29,5A,Sachsenhausen,8.0,60599,Am Wassertempel 60599 Frankfurt,50.098281,8.6943748,highway,way
202,Am Wasserturm,10,Preungesheim,470,10.73,10,Dornbusch,12.0,60435,Am Wasserturm 60435 Frankfurt,50.1467852,8.6939928,highway,way
203,Am Weidenbaum,6,Griesheim,541,6.39,6A,Gallus,16.0,65933,Am Weidenbaum 65933 Frankfurt,50.091021,8.6127716,highway,way
204,Am Weidenbusch,9,Ginnheim,441,9.67,9,Nord,12.0,60431,Am Weidenbusch 60431 Frankfurt,50.1459412,8.6615319,highway,way
205,Am Weidenwörth,6,Schwanheim,531,6.38,6A,Sachsenhausen,10.0,60529,Am Weidenwörth 60529 Frankfurt,50.0894374,8.5767411,highway,way
206,Am Weigelsgarten,9,Eschersheim,451,9.65,9,Dornbusch,12.0,60433,Am Weigelsgarten 60433 Frankfurt,50.1646699,8.655739,highway,way
207,Am Weimarfloß,9,Ginnheim,441,9.67,9,Nord,12.0,60431,Am Weimarfloß 60431 Frankfurt,50.1460791,8.6508512,highway,way
208,Am Weingarten,2,Bockenheim,361,2.12,2,Bockenheim,13.0,60487,Am Weingarten 60487 Frankfurt,50.122835,8.6472277,highway,way
2676,Am Weißberg,12,Kalbach-Riedberg,650,12.79,12,Nord,14.0,60437,Am Weißberg 60437 Frankfurt,50.1911055,8.6339558,highway,way
209,Am Weißen Stein,9,Eschersheim,452,9.66,9,Dornbusch,12.0,60431,Am Weißen Stein 60431 Frankfurt,50.1561451,8.657305,highway,way
209,Am Weißen Stein,9,Eschersheim,451,9.65,9,Dornbusch,12.0,60433,Am Weißen Stein 60433 Frankfurt,50.1563059,8.6574572,highway,way
2850,Am Weißen Turm,16,Bergen-Enkheim,680,16.83,16,Ost,18.0,60388,Am Weißen Turm 60388 Frankfurt,50.156379,8.749982,highway,way
2677,Am Weißkirchener Berg,12,Kalbach-Riedberg,650,12.79,12,Nord,14.0,60437,Am Weißkirchener Berg 60437 Frankfurt,50.1885815,8.6309296,highway,way
210,Am Wendelsgarten,10,Bonames,491,10.7,10,Nord,14.0,60437,Am Wendelsgarten 60437 Frankfurt,50.1838783,8.6660835,highway,way
2711,Am Wetterhahn,14,Harheim,660,14.81,14,Nord,14.0,60437,Am Wetterhahn 60437 Frankfurt,50.1866279,8.6934504,highway,way
211,Am Wiesenhof,6,Schwanheim,532,6.37,6A,Sachsenhausen,10.0,60529,Am Wiesenhof 60529 Frankfurt,50.0828542,8.6169862,highway,way
212,Am Wiesenrain,9,Ginnheim,441,9.67,9,Nord,12.0,60431,Am Wiesenrain 60431 Frankfurt,50.1442608,8.6475444,highway,way
2967,Am Wildpfad,6,Schwanheim,532,6.37,6A,Sachsenhausen,10.0,60529,Am Wildpfad 60529 Frankfurt,50.0786527,8.6065135,highway,way
3350,Am Wingert,12,Kalbach-Riedberg,650,12.79,12,Nord,14.0,60437,Am Wingert 60437 Frankfurt,50.1905532,8.6405262,highway,way
213,Am Wingertsgrund,6,Griesheim,541,6.39,6A,Gallus,16.0,65933,Am Wingertsgrund 65933 Frankfurt,50.091861,8.6133828,highway,way
2678,Am Zedernholz,12,Kalbach-Riedberg,650,12.79,12,Nord,14.0,60437,Am Zedernholz 60437 Frankfurt,50.1855833,8.6525048,highway,way
214,Am Ziehgraben,7,Hausen,410,7.58,7,Bockenheim,11.0,60488,Am Ziehgraben 60488 Frankfurt,50.1382508,8.6216019,highway,way
3204,Amaliestraße,16,Bergen-Enkheim,680,16.83,16,Ost,18.0,60388,Amaliestraße 60388 Frankfurt,50.1538737,8.7448741,highway,way
3615,Ambronenpfad,6,Unterliederbach,622,6.52,6C,Höchst,17.0,65929,Ambronenpfad 65929 Frankfurt,50.1134404,8.5405841,highway,way
3552,Amelia-Mary-Earhart-Straße,5,Flughafen,327,5.34,5A,Sachsenhausen,19.0,60549,Amelia-Mary-Earhart-Straße 60549 Frankfurt,50.055046,8.5935818,highway,way
150,Ammelburgstraße,9,Dornbusch,463,9.69,9,Dornbusch,12.0,60320,Ammelburgstraße 60320 Frankfurt,50.1384751,8.6760945,highway,way
159,Amöneburger Straße,9,Eschersheim,452,9.66,9,Dornbusch,12.0,60433,Amöneburger Straße 60433 Frankfurt,50.1551843,8.6687191,highway,way
160,Amorbacher Weg,5,Sachsenhausen-S.,332,5.29,5A,Sachsenhausen,8.0,60599,Amorbacher Weg 60599 Frankfurt,50.0926377,8.6923503,highway,way
161,Ampèrestraße,2,Bockenheim,344,2.14,2,Bockenheim,11.0,60486,Ampèrestraße 60486 Frankfurt,50.1183666,8.6203377,highway,way
180,Amselweg,6,Unterliederbach,621,6.51,6C,Höchst,17.0,65929,Amselweg 65929 Frankfurt,50.1048121,8.5326398,highway,way
198,Amtsgasse,6,Höchst,580,6.45,6C,Höchst,17.0,65929,Amtsgasse 65929 Frankfurt,50.1014168,8.5531066,highway,way
3194,An den Bangerten,7,Bockenheim,343,7.57,2,Bockenheim,11.0,60487,An den Bangerten 60487 Frankfurt,50.12442,8.6335745,highway,way
2644,An den Bergen,13,Nieder-Erlenbach,640,13.8,13,Nord,14.0,60437,An den Bergen 60437 Frankfurt,50.2028192,8.7138204,highway,way
215,An den Drei Brunnen,9,Ginnheim,441,9.67,9,Nord,12.0,60431,An den Drei Brunnen 60431 Frankfurt,50.1381098,8.6499133,highway,way
3356,An den Drei Hohen,10,Preungesheim,470,10.73,10,Dornbusch,12.0,60435,An den Drei Hohen 60435 Frankfurt,50.1566971,8.6959727,highway,way
216,An den Drei Steinen,10,Preungesheim,470,10.73,10,Dornbusch,12.0,60435,An den Drei Steinen 60435 Frankfurt,50.1459435,8.694177,highway,way
3741,An den Flesch-Werken,1,Gallus,153,1.05,1,Gallus,4.0,60326,An den Flesch-Werken 60326 Frankfurt,50.1003441,8.636779,highway,way
217,An den Geiselwiesen,7,Praunheim,424,7.6,7,Bockenheim,11.0,60488,An den Geiselwiesen 60488 Frankfurt,50.1407864,8.6217756,highway,way
2851,An den Gerlachswiesen,16,Bergen-Enkheim,680,16.83,16,Ost,18.0,60388,An den Gerlachswiesen 60388 Frankfurt,50.1499677,8.7598387,highway,way
3655,An den Kaiserpappeln,15,Nieder-Eschbach,670,15.82,15,Nord,14.0,60437,An den Kaiserpappeln 60437 Frankfurt,50.2035184,8.6811422,highway,way
3492,An den Katharinenhöfen,2,Bockenheim,163,2.15,2,Bockenheim,13.0,60486,An den Katharinenhöfen 60486 Frankfurt,50.1139309,8.6347726,highway,way
3071,An den Mühlwegen,8,Heddernheim,431,8.61,8,Nord,14.0,60439,An den Mühlwegen 60439 Frankfurt,50.1670551,8.6428706,highway,way
2999,An den Pappeln,16,Bergen-Enkheim,680,16.83,16,Ost,18.0,60388,An den Pappeln 60388 Frankfurt,50.1500605,8.7616493,highway,way
219,An den Pflanzländern,7,Praunheim,424,7.6,7,Bockenheim,14.0,60488,An den Pflanzländern 60488 Frankfurt,50.1438574,8.6241808,amenity,node
220,An den Postwiesen,7,Hausen,410,7.58,7,Bockenheim,11.0,60488,An den Postwiesen 60488 Frankfurt,50.1394062,8.6216321,highway,way
221,An den Riederhöfen,4,Ostend,261,4.27,4,Ost,5.0,60314,An den Riederhöfen 60314 Frankfurt,50.116923,8.7283403,highway,way
222,An den Röthen,4,Bornheim,272,4.22,4,Ost,6.0,60389,An den Röthen 60389 Frankfurt,50.1342667,8.7107576,highway,way
223,An den Schießgärten,8,Niederursel,481,8.63,8,Nord,14.0,60439,An den Schießgärten 60439 Frankfurt,50.1662765,8.6198764,highway,way
225,An den Weiden,9,Eschersheim,452,9.66,9,Dornbusch,12.0,60433,An den Weiden 60433 Frankfurt,50.1555035,8.6598339,highway,way
3285,An der Alten Gießerei,16,Bergen-Enkheim,680,16.83,16,Ost,18.0,60388,An der Alten Gießerei 60388 Frankfurt,50.1430844,8.7501902,highway,way
3745,An der alten Ziegelei,15,Nieder-Eschbach,670,15.82,15,Nord,14.0,60437,An der alten Ziegelei 60437 Frankfurt,50.1912519,8.6630988,highway,way
2679,An der Bergstraße,12,Kalbach-Riedberg,650,12.79,12,Nord,14.0,60437,An der Bergstraße 60437 Frankfurt,50.1865737,8.633757,highway,way
229,An der Bitz,7,Praunheim,422,7.59,7,Bockenheim,14.0,60488,An der Bitz 60488 Frankfurt,50.1476346,8.6222293,highway,way
2645,An der Bleiche,13,Nieder-Erlenbach,640,13.8,13,Nord,14.0,60437,An der Bleiche 60437 Frankfurt,50.1999604,8.7148601,highway,way
2741,An der Bornhohl,15,Nieder-Eschbach,670,15.82,15,Nord,14.0,60437,An der Bornhohl 60437 Frankfurt,50.19708,8.6691331,highway,way
230,An der Dammheide,2,Bockenheim,342,2.14,2,Bockenheim,13.0,60486,An der Dammheide 60486 Frankfurt,50.1172719,8.6301659,highway,way
231,An der Fähre,6,Griesheim,541,6.39,6A,Gallus,16.0,65933,An der Fähre 65933 Frankfurt,50.0907414,8.6094979,highway,way
232,An der Festeburg,11,Seckbach,390,11.75,11,Ost,6.0,60389,An der Festeburg 60389 Frankfurt,50.1441528,8.705733,amenity,node
2616,An der Fischerweide,10,Eckenheim,461,10.72,10,Dornbusch,12.0,60435,An der Fischerweide 60435 Frankfurt,50.1520164,8.6819047,highway,way
3496,An der Goetheruh,5,Sachsenhausen-S.,332,5.29,5A,Sachsenhausen,8.0,60599,An der Goetheruh 60599 Frankfurt,50.0918133,8.7238392,highway,way
2852,An der Gruckau,16,Bergen-Enkheim,680,16.83,16,Ost,18.0,60388,An der Gruckau 60388 Frankfurt,50.1561479,8.7501984,highway,way
2680,An der Grünhohl,12,Kalbach-Riedberg,650,12.79,12,Nord,14.0,60437,An der Grünhohl 60437 Frankfurt,50.1879379,8.6420069,highway,way
233,An der Hauptwache,1,Innenstadt,40,1.03,1,Ost,1.0,60313,An der Hauptwache 60313 Frankfurt,50.1135653,8.6791648,highway,way
234,An der Herrenwiese,6,Schwanheim,532,6.37,6A,Sachsenhausen,10.0,60529,An der Herrenwiese 60529 Frankfurt,50.0809013,8.6016783,highway,way
235,An der Kleinmarkthalle,1,Altstadt,10,1.01,1,Ost,1.0,60311,An der Kleinmarkthalle 60311 Frankfurt,50.1125717,8.6837679,highway,way
236,An der Kreuzheck,6,Schwanheim,531,6.38,6A,Sachsenhausen,10.0,60529,An der Kreuzheck 60529 Frankfurt,50.0854799,8.5744052,highway,way
3216,An der Landwehr,12,Kalbach-Riedberg,650,12.79,12,Nord,14.0,60437,An der Landwehr 60437 Frankfurt,50.1903417,8.6359022,highway,way
3452,An der Lindenallee,10,Frankfurter Berg,492,10.71,10,Nord,14.0,60433,An der Lindenallee 60433 Frankfurt,50.1700094,8.6747009,highway,way
2610,An der Litzelwiese,7,Hausen,410,7.58,7,Bockenheim,11.0,60488,An der Litzelwiese 60488 Frankfurt,50.1399883,8.620536,highway,way
2608,An der Lühe,7,Hausen,410,7.58,7,Bockenheim,11.0,60488,An der Lühe 60488 Frankfurt,50.1375999,8.6243511,amenity,node
237,An der Mainkur,11,Fechenheim,510,11.77,11,Ost,18.0,60386,An der Mainkur 60386 Frankfurt,50.1347249,8.7687191,highway,way
238,An der Mannsfaust,5,Oberrad,380,5.28,5A,Sachsenhausen,8.0,60599,An der Mannsfaust 60599 Frankfurt,50.0978987,8.7228344,highway,way
3509,An der Marienkirche,11,Seckbach,390,11.75,11,Ost,6.0,60389,An der Marienkirche 60389 Frankfurt,50.143491,8.7247121,highway,way
2615,An der Nachtweide,9,Eschersheim,451,9.65,9,Dornbusch,12.0,60433,An der Nachtweide 60433 Frankfurt,50.1668513,8.6560171,highway,way
239,An der Nidda,6,Sossenheim,632,6.54,6C,Höchst,17.0,65936,An der Nidda 65936 Frankfurt,50.1140595,8.5913173,highway,way
240,An der Oberen Lache,6,Griesheim,542,6.4,6A,Gallus,16.0,65933,An der Oberen Lache 65933 Frankfurt,50.1047835,8.6039191,highway,way
2853,An der Oberpforte,16,Bergen-Enkheim,680,16.83,16,Ost,18.0,60388,An der Oberpforte 60388 Frankfurt,50.1552758,8.7577023,highway,way
2854,An der Pfaffenmauer,16,Bergen-Enkheim,680,16.83,16,Ost,18.0,60388,An der Pfaffenmauer 60388 Frankfurt,50.1529292,8.7593223,highway,way
2712,An der Pfarrwiese,14,Harheim,660,14.81,14,Nord,14.0,60437,An der Pfarrwiese 60437 Frankfurt,50.1812133,8.6934318,highway,way
241,An der Praunheimer Mühle,7,Praunheim,425,7.6,7,Bockenheim,14.0,60488,An der Praunheimer Mühle 60488 Frankfurt,50.1506839,8.624973,highway,way
242,An der Ringmauer,8,Heddernheim,432,8.62,8,Nord,14.0,60439,An der Ringmauer 60439 Frankfurt,50.1536532,8.6428439,highway,way
2599,An der Roseneller,10,Berkersheim,500,10.74,10,Nord,14.0,60435,An der Roseneller 60435 Frankfurt,50.1738531,8.6994658,highway,way
3257,An der Rosenkranzkirche,11,Seckbach,390,11.75,11,Ost,6.0,60389,An der Rosenkranzkirche 60389 Frankfurt,50.1401719,8.7219701,highway,way
3489,An der Rotterdamer Werft,1,Gutleutviertel,151,1.04,1,Gallus,4.0,60327,An der Rotterdamer Werft 60327 Frankfurt,50.09932405,8.658955988775592,highway,way
3054,An der Ruhbank,16,Bergen-Enkheim,680,16.83,16,Ost,18.0,60388,An der Ruhbank 60388 Frankfurt,50.1579754,8.7664669,amenity,node
244,An der Sandelmühle,8,Heddernheim,431,8.61,8,Nord,14.0,60439,An der Sandelmühle 60439 Frankfurt,50.1643873,8.6481533,highway,way
245,An der Schwarzbachmühle,6,Schwanheim,532,6.37,6A,Sachsenhausen,10.0,60529,An der Schwarzbachmühle 60529 Frankfurt,50.0828387,8.601665,highway,way
246,An der Seehecke,11,Fechenheim,510,11.77,11,Ost,18.0,60386,An der Seehecke 60386 Frankfurt,50.1251537,8.7639482,highway,way
463,An der Staufenmauer,1,Altstadt,10,1.01,1,Ost,1.0,60311,An der Staufenmauer 60311 Frankfurt,50.1135479,8.6865811,highway,way
3080,An der Staustufe,6,Schwanheim,532,6.37,6A,Sachsenhausen,10.0,60529,An der Staustufe 60529 Frankfurt,50.0874878,8.5994846,highway,way
248,An der Steinmühle,6,Nied,561,6.42,6A,Höchst,17.0,65934,An der Steinmühle 65934 Frankfurt,50.1031401,8.5584285,highway,way
249,An der Tillylinde,6,Schwanheim,531,6.38,6A,Sachsenhausen,10.0,60529,An der Tillylinde 60529 Frankfurt,50.0971727,8.5514375,highway,way
2756,An der Walkmühle,15,Nieder-Eschbach,670,15.82,15,Nord,14.0,60437,An der Walkmühle 60437 Frankfurt,50.2005543,8.6713614,highway,way
3007,An der Wehrmauer,10,Bonames,491,10.7,10,Nord,14.0,60437,An der Wehrmauer 60437 Frankfurt,50.1812441,8.6604985,highway,way
3317,An der Welle,2,Westend-Süd,110,2.1,2,Bockenheim,3.0,60322,An der Welle 60322 Frankfurt,50.1178863,8.6720706,highway,way
2681,An der Wellenburg,12,Kalbach-Riedberg,650,12.79,12,Nord,14.0,60437,An der Wellenburg 60437 Frankfurt,50.1867744,8.6352571,highway,way
250,An der Wildhube,6,Schwanheim,531,6.38,6A,Sachsenhausen,10.0,60529,An der Wildhube 60529 Frankfurt,50.0853988,8.5860525,highway,way
252,An der Wolfsweide,10,Preungesheim,470,10.73,10,Dornbusch,12.0,60435,An der Wolfsweide 60435 Frankfurt,50.1471671,8.698094,highway,way
251,An der Wörthspitze,6,Nied,561,6.42,6A,Höchst,16.0,65934,An der Wörthspitze 65934 Frankfurt,50.0998676,8.5641323,highway,way
253,An der Zingelswiese,6,Griesheim,552,6.41,6A,Gallus,16.0,65933,An der Zingelswiese 65933 Frankfurt,50.1040472,8.5944667,highway,way
247,Andersenweg,9,Ginnheim,441,9.67,9,Nord,12.0,60431,Andersenweg 60431 Frankfurt,50.1473397,8.6573584,highway,way
254,Andreaestraße,4,Bornheim,281,4.24,4,Ost,6.0,60385,Andreaestraße 60385 Frankfurt,50.1262422,8.7116455,highway,way
255,Andreasplatz,6,Höchst,580,6.45,6C,Höchst,17.0,65929,Andreasplatz 65929 Frankfurt,50.10245295,8.550217689547063,highway,way
256,Andreasstraße,6,Höchst,580,6.45,6C,Höchst,17.0,65929,Andreasstraße 65929 Frankfurt,50.1023785,8.5518193,highway,way
257,Anemonenpfad,6,Griesheim,542,6.4,6A,Gallus,16.0,65933,Anemonenpfad 65933 Frankfurt,50.1068013,8.6016358,highway,way
3733,Angelika-Machinek-Straße,2,Bockenheim,163,2.15,2,Bockenheim,13.0,60486,Angelika-Machinek-Straße 60486 Frankfurt,50.1137718,8.6246315,highway,way
258,Ankergasse,11,Fechenheim,520,11.78,11,Ost,18.0,60386,Ankergasse 60386 Frankfurt,50.1224661,8.771586,highway,way
3084,Ankunftbogen (Flughafen Ffm.),5,Flughafen,329,5.34,5A,Sachsenhausen,19.0,60549,Ankunftbogen (Flughafen Ffm.)* 60549 Frankfurt,50.0520806,8.5754721,highway,way
3644,Anna-Beyer-Straße,3,Nordend-West,213,3.17,3,Ost,12.0,60435,Anna-Beyer-Straße 60435 Frankfurt,50.1392385,8.6961651,highway,way
3544,Anna-Lindh-Allee,15,Nieder-Eschbach,670,15.82,15,Nord,14.0,60437,Anna-Lindh-Allee 60437 Frankfurt,50.206913,8.6592616,highway,way
3746,Anna-Seghers-Pfad,3,Nordend-West,202,3.16,3,Dornbusch,3.0,60322,Anna-Seghers-Pfad 60322 Frankfurt,50.1327246,8.6822272,highway,way
3746,Anna-Seghers-Pfad,3,Nordend-West,202,3.16,3,Dornbusch,12.0,60320,Anna-Seghers-Pfad 60320 Frankfurt,50.1327246,8.6822272,highway,way
259,Annabergstraße,6,Zeilsheim,604,6.49,6B,Höchst,17.0,65931,Annabergstraße 65931 Frankfurt,50.0939083,8.5045208,highway,way
260,Annastraße,3,Nordend-West,203,3.16,3,Dornbusch,3.0,60322,Annastraße 60322 Frankfurt,50.1270283,8.6818347,highway,way
261,Anne-Frank-Straße,9,Eschersheim,451,9.65,9,Dornbusch,12.0,60433,Anne-Frank-Straße 60433 Frankfurt,50.15988625,8.662792569660123,highway,way
3642,Anneliese-Hoevel-Straße,3,Nordend-West,213,3.17,3,Ost,12.0,60435,Anneliese-Hoevel-Straße 60435 Frankfurt,50.1376939,8.6947909,highway,way
3651,Annemarie-Schlordt-Straße,6,Sossenheim,632,6.54,6C,Höchst,17.0,65936,Annemarie-Schlordt-Straße 65936 Frankfurt,,,,
3478,Annette-Kolb-Weg,12,Kalbach-Riedberg,651,12.79,12,Nord,14.0,60438,Annette-Kolb-Weg 60438 Frankfurt,50.1792811,8.6292612,highway,way
262,Anspacher Straße,1,Gallus,165,1.08,1,Gallus,4.0,60326,Anspacher Straße 60326 Frankfurt,50.105936,8.6218599,highway,way
263,Anton-Burger-Weg,5,Sachsenhausen-S.,332,5.29,5A,Sachsenhausen,8.0,60599,Anton-Burger-Weg 60599 Frankfurt,50.0884558,8.7036772,highway,way
266,Anton-Radl-Pfad,5,Sachsenhausen-S.,332,5.29,5A,Sachsenhausen,8.0,60599,Anton-Radl-Pfad 60599 Frankfurt,50.0861476,8.6973173,highway,way
3460,Anton-Schlüter-Straße,12,Kalbach-Riedberg,650,12.79,12,Nord,14.0,60437,Anton-Schlüter-Straße 60437 Frankfurt,50.1926093,8.6491727,highway,way
264,Antoninusstraße,8,Heddernheim,431,8.61,8,Nord,14.0,60439,Antoninusstraße 60439 Frankfurt,50.1577923,8.6414665,highway,way
265,Antoniterstraße (tlw. ehem. Rosengasse),6,Höchst,591,6.46,6C,Höchst,17.0,65929,Antoniterstraße (tlw. ehem. Rosengasse) 65929 Frankfurt,,,,
268,Anzengruberstraße,9,Dornbusch,442,9.68,9,Dornbusch,12.0,60320,Anzengruberstraße 60320 Frankfurt,50.1414689,8.6669041,highway,way
269,Apoldaer Weg,6,Zeilsheim,611,6.49,6B,Höchst,17.0,65931,Apoldaer Weg 65931 Frankfurt,50.0944857,8.5025594,highway,way
270,Apostelstraße,5,Niederrad,372,5.36,5B,Sachsenhausen,10.0,60528,Apostelstraße 60528 Frankfurt,50.0846067,8.6459768,amenity,node
271,Appelsgasse,2,Bockenheim,350,2.13,2,Bockenheim,13.0,60487,Appelsgasse 60487 Frankfurt,50.1242269,8.6385691,highway,way
3247,Aralienstraße,6,Unterliederbach,623,6.51,6C,Höchst,17.0,65929,Aralienstraße 65929 Frankfurt,50.1055376,8.5259515,highway,way
273,Arndtstraße,2,Westend-Süd,170,2.11,2,Bockenheim,13.0,60325,Arndtstraße 60325 Frankfurt,50.118857,8.6606429,highway,way
3061,Arnoldshainer Straße,7,Rödelheim,402,7.56,7,Bockenheim,11.0,60489,Arnoldshainer Straße 60489 Frankfurt,50.1267242,8.6090039,highway,way
2930,Arnoldstraße,15,Nieder-Eschbach,670,15.82,15,Nord,14.0,60437,Arnoldstraße 60437 Frankfurt,50.1908101,8.6654422,highway,way
274,Arnsburger Straße,4,Bornheim,240,4.23,4,Ost,5.0,60385,Arnsburger Straße 60385 Frankfurt,50.1255036,8.7069908,highway,way
275,Arnstädter Weg,6,Zeilsheim,604,6.49,6B,Höchst,17.0,65931,Arnstädter Weg 65931 Frankfurt,50.0922825,8.502009,highway,way
276,Arnsteiner Straße,3,Nordend-Ost,222,3.18,3,Ost,6.0,60389,Arnsteiner Straße 60389 Frankfurt,50.1305156,8.699584,highway,way
2855,Arnswalder Straße,16,Bergen-Enkheim,680,16.83,16,Ost,18.0,60388,Arnswalder Straße 60388 Frankfurt,50.1440533,8.759001,highway,way
2593,Arolser Straße,11,Seckbach,390,11.75,11,Ost,6.0,60389,Arolser Straße 60389 Frankfurt,50.1390443,8.7168968,highway,way
3683,Arthur-Stern-Platz,7,Rödelheim,402,7.56,7,Bockenheim,11.0,60489,Arthur-Stern-Platz 60489 Frankfurt,50.124111049999996,8.606792045435686,highway,way
3009,Arthur-von-Weinberg-Steg,11,Fechenheim,510,11.77,11,Ost,18.0,60386,Arthur-von-Weinberg-Steg 60386 Frankfurt,50.1252135,8.7699165,highway,way
3607,Arthur-von-Weinberg-Straße,12,Kalbach-Riedberg,651,12.79,12,Nord,14.0,60438,Arthur-von-Weinberg-Straße 60438 Frankfurt,50.1746484,8.62579,highway,way
277,Aschaffenburger Straße,5,Sachsenhausen-S.,332,5.29,5A,Sachsenhausen,8.0,60599,Aschaffenburger Straße 60599 Frankfurt,50.0963172,8.6933671,highway,way
2757,Aschebachstraße,15,Nieder-Eschbach,670,15.82,15,Nord,14.0,60437,Aschebachstraße 60437 Frankfurt,50.2011474,8.6771318,highway,way
279,Assenheimer Straße,7,Rödelheim,401,7.55,7,Bockenheim,11.0,60489,Assenheimer Straße 60489 Frankfurt,50.1259764,8.6142126,highway,way
3010,Aßlarer Straße,8,Heddernheim,431,8.61,8,Nord,14.0,60439,Aßlarer Straße 60439 Frankfurt,50.1634982,8.6421465,highway,way
280,Assmannshäuser Weg,6,Schwanheim,531,6.38,6A,Sachsenhausen,10.0,60529,Assmannshäuser Weg 60529 Frankfurt,50.0834819,8.5697674,highway,way
281,Astronomenweg,6,Unterliederbach,621,6.51,6C,Höchst,17.0,65929,Astronomenweg 65929 Frankfurt,50.1071271,8.5379582,highway,way
3527,Athener Straße,1,Gallus,161,1.06,1,Gallus,4.0,60327,Athener Straße 60327 Frankfurt,50.108373,8.6504257,highway,way
2595,Atzelbergplatz,11,Seckbach,390,11.75,11,Ost,6.0,60389,Atzelbergplatz 60389 Frankfurt,50.1403908,8.7196577,highway,way
2594,Atzelbergstraße,11,Seckbach,390,11.75,11,Ost,6.0,60389,Atzelbergstraße 60389 Frankfurt,50.1418829,8.7233564,amenity,node
2856,Auerbacher Straße,16,Bergen-Enkheim,680,16.83,16,Ost,18.0,60388,Auerbacher Straße 60388 Frankfurt,50.1426066,8.7583028,highway,way
282,Auerfeldstraße,11,Seckbach,390,11.75,11,Ost,6.0,60389,Auerfeldstraße 60389 Frankfurt,50.1454338,8.7199612,highway,way
283,Auerhahnstraße,6,Griesheim,552,6.41,6A,Gallus,16.0,65933,Auerhahnstraße 65933 Frankfurt,50.1008939,8.5882978,highway,way
284,Auerstraße,6,Höchst,580,6.45,6C,Höchst,17.0,65929,Auerstraße 65929 Frankfurt,50.1054773,8.5514659,highway,way
285,Auerswaldstraße,4,Ostend,252,4.25,4,Ost,5.0,60385,Auerswaldstraße 60385 Frankfurt,50.1195007,8.7134998,highway,way
286,Auerweg,11,Seckbach,390,11.75,11,Ost,6.0,60389,Auerweg 60389 Frankfurt,50.1462279,8.7091041,highway,way
287,Auf dem Berg,6,Nied,562,6.43,6A,Höchst,16.0,65934,Auf dem Berg 65934 Frankfurt,50.102562,8.5720532,highway,way
288,Auf dem Gleichen,6,Nied,562,6.43,6A,Höchst,16.0,65934,Auf dem Gleichen 65934 Frankfurt,50.1033213,8.574634,highway,way
289,Auf dem Lohr,11,Seckbach,390,11.75,11,Ost,6.0,60389,Auf dem Lohr 60389 Frankfurt,50.1489578,8.7237631,highway,way
290,Auf dem Mühlberg,5,Sachsenhausen-S.,332,5.29,5A,Sachsenhausen,8.0,60599,Auf dem Mühlberg 60599 Frankfurt,50.0991686,8.7031925,highway,way
2758,Auf dem Ried,15,Nieder-Eschbach,670,15.82,15,Nord,14.0,60437,Auf dem Ried 60437 Frankfurt,50.2036663,8.6736489,highway,way
291,Auf dem Schafberg,6,Griesheim,541,6.39,6A,Gallus,16.0,65933,Auf dem Schafberg 65933 Frankfurt,50.0923516,8.6118597,highway,way
293,Auf der Beun,6,Griesheim,551,6.39,6A,Gallus,16.0,65933,Auf der Beun 65933 Frankfurt,50.0931658,8.6040285,highway,way
294,Auf der Insel,7,Rödelheim,401,7.55,7,Bockenheim,11.0,60489,Auf der Insel 60489 Frankfurt,50.12401,8.612408,highway,way
295,Auf der Körnerwiese,2,Westend-Nord,191,2.09,2,Dornbusch,3.0,60322,Auf der Körnerwiese 60322 Frankfurt,50.1228066,8.6740232,highway,way
296,Auf der Kuhr,10,Berkersheim,500,10.74,10,Nord,14.0,60435,Auf der Kuhr 60435 Frankfurt,50.1691287,8.6934814,highway,way
297,Auf der Lindenhöhe,9,Eschersheim,452,9.66,9,Dornbusch,12.0,60433,Auf der Lindenhöhe 60433 Frankfurt,50.1507152,8.6650439,highway,way
298,Auf der Platte,10,Preungesheim,470,10.73,10,Dornbusch,12.0,60435,Auf der Platte 60435 Frankfurt,50.1487383,8.6933042,highway,way
299,Auf der Sandeller,10,Berkersheim,500,10.74,10,Nord,14.0,60435,Auf der Sandeller 60435 Frankfurt,50.1748991,8.6977534,highway,way
3698,Auf der Sandkaute,16,Bergen-Enkheim,680,16.83,16,Ost,18.0,60388,Auf der Sandkaute 60388 Frankfurt,50.1449497,8.7640184,highway,way
300,Auf der Schanz,6,Sossenheim,631,6.53,6C,Höchst,17.0,65936,Auf der Schanz 65936 Frankfurt,50.1203101,8.562745,highway,way
2952,Auf der Schloßhecke,9,Ginnheim,441,9.67,9,Nord,12.0,60431,Auf der Schloßhecke 60431 Frankfurt,50.1440281,8.6464289,highway,way
2759,Auf der Steinern Straße,15,Nieder-Eschbach,670,15.82,15,Nord,14.0,60437,Auf der Steinern Straße 60437 Frankfurt,50.192071,8.6754869,highway,way
2829,Auf der Steinritz,13,Nieder-Erlenbach,640,13.8,13,Nord,14.0,60437,Auf der Steinritz 60437 Frankfurt,50.2099866,8.7004701,highway,way
3731,Auf der Sülze,11,Seckbach,390,11.75,11,Ost,6.0,60385,Auf der Sülze 60385 Frankfurt,50.1377979,8.71493567589087,highway,way
3731,Auf der Sülze,11,Seckbach,390,11.75,11,Ost,6.0,60389,Auf der Sülze 60389 Frankfurt,50.1377979,8.71493567589087,highway,way
3242,Auf der Ulmenklaue,11,Seckbach,390,11.75,11,Ost,6.0,60389,Auf der Ulmenklaue 60389 Frankfurt,50.1381186,8.7119361,highway,way
3005,Auf der Waldhohl,13,Nieder-Erlenbach,640,13.8,13,Nord,14.0,60437,Auf der Waldhohl 60437 Frankfurt,50.2073224,8.7064431,highway,way
303,Auf die Bach,6,Sindlingen,601,6.47,6B,Höchst,17.0,65931,Auf die Bach 65931 Frankfurt,50.0864907,8.5137297,highway,way
304,Augrabenweg,6,Unterliederbach,621,6.51,6C,Höchst,17.0,65929,Augrabenweg 65929 Frankfurt,50.112006,8.5320782,highway,way
305,August-Bebel-Straße,6,Griesheim,541,6.39,6A,Gallus,16.0,65933,August-Bebel-Straße 65933 Frankfurt,50.092355,8.6109306,highway,way
3360,August-Belz-Anlage,5,Niederrad,372,5.36,5B,Sachsenhausen,10.0,60528,August-Belz-Anlage 60528 Frankfurt,50.082786999999996,8.640349933688606,leisure,way
307,August-Euler-Straße,2,Bockenheim,163,2.15,2,Bockenheim,13.0,60486,August-Euler-Straße 60486 Frankfurt,50.1137148,8.6230374,highway,way
3685,August-Laubenheimer-Straße,6,Schwanheim,531,6.38,6A,Sachsenhausen,10.0,65929,August-Laubenheimer-Straße 65929 Frankfurt,50.0924007,8.5495078,highway,way
308,August-Schanz-Straße,10,Preungesheim,470,10.73,10,Dornbusch,14.0,60433,August-Schanz-Straße 60433 Frankfurt,50.1627814,8.6883877,amenity,node
308,August-Schanz-Straße,10,Berkersheim,500,10.74,10,Nord,14.0,60435,August-Schanz-Straße 60435 Frankfurt,50.1607129,8.6896409,highway,way
309,August-Scheidel-Straße,9,Ginnheim,441,9.67,9,Nord,12.0,60431,August-Scheidel-Straße 60431 Frankfurt,50.1370953,8.6457486,highway,way
310,August-Siebert-Straße,2,Westend-Nord,191,2.09,2,Dornbusch,3.0,60323,August-Siebert-Straße 60323 Frankfurt,50.1235367,8.664655,highway,way
306,Augustenburgstraße,7,Praunheim,425,7.6,7,Bockenheim,14.0,60488,Augustenburgstraße 60488 Frankfurt,50.152455,8.6237301,highway,way
311,Augustusstraße,8,Heddernheim,431,8.61,8,Nord,14.0,60439,Augustusstraße 60439 Frankfurt,50.1597114,8.6431962,highway,way
313,Aussiger Straße,5,Sachsenhausen-S.,326,5.34,5A,Sachsenhausen,8.0,60598,Aussiger Straße 60598 Frankfurt,50.08682225,8.670719777783862,highway,way
316,Autogenstraße,6,Griesheim,551,6.39,6A,Gallus,16.0,65933,Autogenstraße 65933 Frankfurt,50.0939714,8.6062069,highway,way
318,Aystettstraße,3,Nordend-West,203,3.16,3,Dornbusch,3.0,60322,Aystettstraße 60322 Frankfurt,50.1287858,8.6775389,highway,way
3128,Azaleenweg,10,Frankfurter Berg,492,10.71,10,Nord,14.0,60433,Azaleenweg 60433 Frankfurt,50.1638473,8.6714541,highway,way
319,Babenhäuser Landstraße,5,Sachsenhausen-S.,332,5.29,5A,Sachsenhausen,8.0,60599,Babenhäuser Landstraße 60599 Frankfurt,50.081313,8.7053119,highway,way
320,Bachflussweg,5,Oberrad,380,5.28,5A,Sachsenhausen,8.0,60599,Bachflussweg 60599 Frankfurt,50.1012634,8.725187,highway,way
3423,Bachforellenweg,1,Gutleutviertel,151,1.04,1,Gallus,4.0,60327,Bachforellenweg 60327 Frankfurt,50.1007908,8.6632506,highway,way
321,Bachmannstraße,7,Hausen,410,7.58,7,Bockenheim,11.0,60488,Bachmannstraße 60488 Frankfurt,50.1314746,8.6257744,highway,way
2857,Bachrain,16,Bergen-Enkheim,680,16.83,16,Ost,18.0,60388,Bachrain 60388 Frankfurt,50.15314,8.7612499,highway,way
322,Bachstelzenweg,6,Unterliederbach,621,6.51,6C,Höchst,17.0,65929,Bachstelzenweg 65929 Frankfurt,50.1049265,8.5308885,highway,way
2682,Bachstraße,12,Kalbach-Riedberg,650,12.79,12,Nord,14.0,60437,Bachstraße 60437 Frankfurt,50.188617,8.6344372,highway,way
323,Bachwiesenstraße,5,Oberrad,380,5.28,5A,Sachsenhausen,8.0,60599,Bachwiesenstraße 60599 Frankfurt,50.1022307,8.7247753,highway,way
326,Bäckergasse,5,Sachsenhausen-N.,300,5.31,5A,Sachsenhausen,8.0,60594,Bäckergasse 60594 Frankfurt,50.105976,8.6855982,highway,way
327,Bäckerweg,3,Nordend-Ost,130,3.2,3,Ost,3.0,60316,Bäckerweg 60316 Frankfurt,50.1230188,8.6923889,highway,way
325,Badstubengasse,6,Höchst,580,6.45,6C,Höchst,17.0,65929,Badstubengasse 65929 Frankfurt,50.099251,8.5489038,highway,way
329,Baeyerstraße,6,Griesheim,551,6.39,6A,Gallus,16.0,65933,Baeyerstraße 65933 Frankfurt,50.0930222,8.598883,highway,way
373,Balduinstraße,5,Oberrad,380,5.28,5A,Sachsenhausen,8.0,60599,Balduinstraße 60599 Frankfurt,50.0983841,8.7147436,highway,way
2858,Barbarossastraße,16,Bergen-Enkheim,680,16.83,16,Ost,18.0,60388,Barbarossastraße 60388 Frankfurt,50.1448602,8.7535788,highway,way
374,Barchfeldstraße,10,Eckenheim,461,10.72,10,Dornbusch,12.0,60435,Barchfeldstraße 60435 Frankfurt,50.1480691,8.6830828,highway,way
375,Barckhausstraße,2,Westend-Süd,100,2.11,2,Bockenheim,13.0,60325,Barckhausstraße 60325 Frankfurt,50.1173747,8.6647297,highway,way
328,Bärenstraße,4,Ostend,261,4.27,4,Ost,5.0,60316,Bärenstraße 60316 Frankfurt,50.1134975,8.7031308,highway,way
3420,Barodapfad,4,Ostend,140,4.26,4,Ost,5.0,60316,Barodapfad 60316 Frankfurt,50.1176703,8.6990757,highway,way
376,Bartholomäusgasse,6,Zeilsheim,611,6.49,6B,Höchst,17.0,65931,Bartholomäusgasse 65931 Frankfurt,50.0944207,8.4919674,highway,way
3144,Baruch-Baschwitz-Platz,7,Rödelheim,402,7.56,7,Bockenheim,11.0,60489,Baruch-Baschwitz-Platz 60489 Frankfurt,50.124374,8.6077595,highway,way
377,Basaltstraße,2,Bockenheim,361,2.12,2,Bockenheim,13.0,60487,Basaltstraße 60487 Frankfurt,50.124996,8.6428148,highway,way
378,Baseler Platz,1,Gutleutviertel,151,1.04,1,Gallus,4.0,60329,Baseler Platz 60329 Frankfurt,50.1034231,8.66408321940466,leisure,way
379,Baseler Straße,1,Gutleutviertel,151,1.04,1,Gallus,4.0,60329,Baseler Straße 60329 Frankfurt,50.1057609,8.6651685,highway,way
2760,Bathgartenweg,15,Nieder-Eschbach,670,15.82,15,Nord,14.0,60437,Bathgartenweg 60437 Frankfurt,50.2021242,8.6741928,highway,way
380,Battenberger Weg,7,Rödelheim,402,7.56,7,Bockenheim,11.0,60489,Battenberger Weg 60489 Frankfurt,50.1209634,8.6054042,highway,way
381,Batterie,6,Höchst,580,6.45,6C,Höchst,17.0,65929,Batterie 65929 Frankfurt,50.097590350000004,8.547155702995695,leisure,way
382,Battonnstraße,1,Innenstadt,80,1.01,1,Ost,1.0,60311,Battonnstraße 60311 Frankfurt,50.1124177,8.6861621,highway,way
383,Bauhofstraße,6,Höchst,580,6.45,6C,Höchst,17.0,65929,Bauhofstraße 65929 Frankfurt,50.1036152,8.5504543,highway,way
384,Baumertstraße,11,Fechenheim,510,11.77,11,Ost,18.0,60386,Baumertstraße 60386 Frankfurt,50.1235667,8.7685083,highway,way
385,Baumweg,3,Nordend-Ost,130,3.2,3,Ost,3.0,60316,Baumweg 60316 Frankfurt,50.1186131,8.6942202,highway,way
386,Baustraße,3,Nordend-West,201,3.21,3,Dornbusch,3.0,60322,Baustraße 60322 Frankfurt,50.1225212,8.6767716,highway,way
387,Bebraer Straße,11,Fechenheim,510,11.77,11,Ost,18.0,60386,Bebraer Straße 60386 Frankfurt,50.1345687,8.763617,highway,way
388,Bechtenwaldstraße,6,Zeilsheim,612,6.5,6B,Höchst,17.0,65931,Bechtenwaldstraße 65931 Frankfurt,50.0984871,8.5016855,highway,way
2859,Beckerserlen,16,Bergen-Enkheim,680,16.83,16,Ost,18.0,60388,Beckerserlen 60388 Frankfurt,50.1460855,8.753635,highway,way
390,Beethovenplatz,2,Westend-Süd,170,2.11,2,Bockenheim,13.0,60325,Beethovenplatz 60325 Frankfurt,50.1183101,8.6561918,highway,way
391,Beethovenstraße,2,Westend-Süd,170,2.11,2,Bockenheim,13.0,60325,Beethovenstraße 60325 Frankfurt,50.1196607,8.6567893,highway,way
392,Belchenstraße,5,Niederrad,371,5.35,5B,Sachsenhausen,10.0,60528,Belchenstraße 60528 Frankfurt,50.0866415,8.6455499,highway,way
2795,Ben-Gurion-Ring,15,Nieder-Eschbach,670,15.82,15,Nord,14.0,60437,Ben-Gurion-Ring 60437 Frankfurt,50.1930229,8.6618406,highway,way
393,Bendelgasse,8,Heddernheim,431,8.61,8,Nord,14.0,60439,Bendelgasse 60439 Frankfurt,50.1586936,8.6488966,highway,way
2997,Bendergasse,1,Altstadt,10,1.01,1,Ost,1.0,60311,Bendergasse 60311 Frankfurt,50.1103274,8.6834975,highway,way
3581,Berberitzenweg,10,Frankfurter Berg,492,10.71,10,Nord,14.0,60433,Berberitzenweg 60433 Frankfurt,50.1673187,8.6870112,highway,way
3581,Berberitzenweg,10,Berkersheim,500,10.74,10,Nord,14.0,60435,Berberitzenweg 60435 Frankfurt,50.1674303,8.6880871,highway,way
2860,Berger Marktplatz,16,Bergen-Enkheim,680,16.83,16,Ost,18.0,60388,Berger Marktplatz 60388 Frankfurt,50.1575829,8.7580629,highway,way
3611,Berger Rathausplatz,16,Bergen-Enkheim,680,16.83,16,Ost,18.0,60388,Berger Rathausplatz 60388 Frankfurt,50.155247700000004,8.753473228633212,highway,way
3495,Berger Schützenhaus (Wohnplatz),16,Bergen-Enkheim,680,16.83,16,Ost,18.0,60388,Berger Schützenhaus (Wohnplatz) 60388 Frankfurt,,,,
396,Berger Straße,3,Nordend-Ost,130,3.2,3,Ost,3.0,60316,Berger Straße 60316 Frankfurt,50.1204576,8.6960354,highway,way
396,Berger Straße,4,Bornheim,240,4.23,4,Ost,6.0,60385,Berger Straße 60385 Frankfurt,50.128247,8.7106076,highway,way
397,Berger Weg,11,Seckbach,390,11.75,11,Ost,6.0,60389,Berger Weg 60389 Frankfurt,50.153931,8.7169189,highway,way
398,Bergesgrundweg,5,Sachsenhausen-S.,332,5.29,5A,Sachsenhausen,8.0,60599,Bergesgrundweg 60599 Frankfurt,50.0927363,8.7002332,highway,way
399,Bergmannweg,6,Nied,562,6.43,6A,Höchst,16.0,65934,Bergmannweg 65934 Frankfurt,50.106177,8.5774399,highway,way
400,Berkersheimer Bahnstraße,10,Berkersheim,500,10.74,10,Nord,14.0,60435,Berkersheimer Bahnstraße 60435 Frankfurt,50.1732917,8.6978917,highway,way
401,Berkersheimer Hohl,10,Berkersheim,500,10.74,10,Nord,14.0,60435,Berkersheimer Hohl 60435 Frankfurt,50.1723504,8.6983207,highway,way
402,Berkersheimer Obergasse,10,Berkersheim,500,10.74,10,Nord,14.0,60435,Berkersheimer Obergasse 60435 Frankfurt,50.1722719,8.6972378,highway,way
403,Berkersheimer Untergasse,10,Berkersheim,500,10.74,10,Nord,14.0,60435,Berkersheimer Untergasse 60435 Frankfurt,50.1733252,8.6965159,highway,way
404,Berkersheimer Weg,10,Frankfurter Berg,492,10.71,10,Nord,14.0,60433,Berkersheimer Weg 60433 Frankfurt,50.1672336,8.6779014,highway,way
405,Berliner Straße,1,Altstadt,10,1.01,1,Ost,1.0,60311,Berliner Straße 60311 Frankfurt,50.1118274,8.6822265,highway,way
406,Bernadottestraße,8,Heddernheim,432,8.62,8,Nord,14.0,60439,Bernadottestraße 60439 Frankfurt,50.1567019,8.6318902,highway,way
407,Bernburger Weg,6,Zeilsheim,611,6.49,6B,Höchst,17.0,65931,Bernburger Weg 65931 Frankfurt,50.0947843,8.501364,highway,way
2761,Berner Straße,15,Nieder-Eschbach,670,15.82,15,Nord,14.0,60437,Berner Straße 60437 Frankfurt,50.1919221,8.6664441,highway,way
3543,Bernhard-Becker-Straße,3,Nordend-Ost,222,3.18,3,Ost,6.0,60389,Bernhard-Becker-Straße 60389 Frankfurt,50.1380262,8.7002118,highway,way
3548,Bernhard-Grzimek-Allee,4,Ostend,251,4.25,4,Ost,5.0,60316,Bernhard-Grzimek-Allee 60316 Frankfurt,50.1144744,8.7003558,highway,way
3662,Bernhard-Hermkes-Straße,12,Kalbach-Riedberg,651,12.79,12,Nord,14.0,60438,Bernhard-Hermkes-Straße 60438 Frankfurt,50.1774827,8.6179529,highway,way
408,Bernhard-Mannfeld-Weg,5,Sachsenhausen-S.,332,5.29,5A,Sachsenhausen,8.0,60599,Bernhard-Mannfeld-Weg 60599 Frankfurt,50.086964,8.699697,highway,way
409,Bernusstraße,2,Bockenheim,362,2.12,2,Bockenheim,13.0,60487,Bernusstraße 60487 Frankfurt,50.1265894,8.6459974,highway,way
2742,Bert-Brecht-Straße,15,Nieder-Eschbach,670,15.82,15,Nord,14.0,60437,Bert-Brecht-Straße 60437 Frankfurt,50.2058141,8.6674472,highway,way
3514,Bertha-Bagge-Straße,12,Kalbach-Riedberg,651,12.79,12,Nord,14.0,60438,Bertha-Bagge-Straße 60438 Frankfurt,50.1809269,8.6357095,highway,way
3754,Bertha-Pappenheim-Platz,1,Innenstadt,40,1.03,1,Ost,1.0,60311,Bertha-Pappenheim-Platz 60311 Frankfurt,50.10711525,8.67392256694123,highway,way
410,Bertha-von-Suttner-Ring,5,Sachsenhausen-S.,323,5.3,5A,Sachsenhausen,8.0,60598,Bertha-von-Suttner-Ring 60598 Frankfurt,50.0842816,8.6827501,highway,way
411,Bertholdstraße,8,Praunheim,426,8.62,7,Nord,14.0,60439,Bertholdstraße 60439 Frankfurt,50.156046,8.6267681,highway,way
413,Bertramstraße,3,Nordend-West,202,3.16,3,Dornbusch,12.0,60320,Bertramstraße 60320 Frankfurt,50.1396472,8.6743617,highway,way
414,Bertramswiese,3,Nordend-West,202,3.16,3,Dornbusch,12.0,60320,Bertramswiese 60320 Frankfurt,50.1370085,8.6774099,highway,way
415,Beselerstraße,4,Ostend,252,4.25,4,Ost,5.0,60385,Beselerstraße 60385 Frankfurt,50.1215635,8.7156434,highway,way
2861,Bessemerstraße,16,Bergen-Enkheim,680,16.83,16,Ost,18.0,60388,Bessemerstraße 60388 Frankfurt,50.1428408,8.7499624,highway,way
3549,Bessie-Coleman-Straße,5,Flughafen,327,5.34,5A,Sachsenhausen,19.0,60549,Bessie-Coleman-Straße 60549 Frankfurt,50.0565694,8.5957729,highway,way
416,Bethmann-Hollweg-Straße,5,Oberrad,380,5.28,5A,Sachsenhausen,8.0,60599,Bethmann-Hollweg-Straße 60599 Frankfurt,50.1007722,8.7193952,highway,way
417,Bethmannstraße,1,Altstadt,10,1.01,1,Ost,1.0,60311,Bethmannstraße 60311 Frankfurt,50.1104534,8.6800289,amenity,node
418,Bettinaplatz,2,Westend-Süd,170,2.11,2,Bockenheim,13.0,60325,Bettinaplatz 60325 Frankfurt,50.1139073,8.6569039,amenity,node
419,Bettinastraße,2,Westend-Süd,170,2.11,2,Bockenheim,13.0,60325,Bettinastraße 60325 Frankfurt,50.1104065,8.6604564,highway,way
420,Betzdorfer Straße,6,Sossenheim,632,6.54,6C,Höchst,17.0,65936,Betzdorfer Straße 65936 Frankfurt,50.1250505,8.5824625,highway,way
421,Beunestraße,6,Nied,561,6.42,6A,Höchst,16.0,65934,Beunestraße 65934 Frankfurt,50.1000073,8.5665069,highway,way
422,Beuthener Straße,5,Sachsenhausen-S.,326,5.34,5A,Sachsenhausen,8.0,60598,Beuthener Straße 60598 Frankfurt,50.090085,8.674796,highway,way
2933,Bickelhof (Wohnplatz),16,Bergen-Enkheim,680,16.83,16,Ost,18.0,60388,Bickelhof (Wohnplatz) 60388 Frankfurt,,,,
2968,Bickenbacher Weg,6,Schwanheim,532,6.37,6A,Sachsenhausen,10.0,60529,Bickenbacher Weg 60529 Frankfurt,50.0796762,8.5992962,highway,way
423,Biebergasse,1,Innenstadt,50,1.02,1,Ost,1.0,60313,Biebergasse 60313 Frankfurt,50.1141435,8.6771737,amenity,node
3729,Bieberpark,15,Nieder-Eschbach,670,15.82,15,Nord,14.0,60437,Bieberpark 60437 Frankfurt,,,,
424,Biedenkopfer Weg,7,Rödelheim,402,7.56,7,Bockenheim,11.0,60489,Biedenkopfer Weg 60489 Frankfurt,50.121972,8.6060335,highway,way
425,Biegweg,2,Bockenheim,344,2.14,2,Bockenheim,11.0,60486,Biegweg 60486 Frankfurt,50.1201939,8.6217801,highway,way
426,Bielefelder Straße,6,Zeilsheim,611,6.49,6B,Höchst,17.0,65931,Bielefelder Straße 65931 Frankfurt,50.0961793,8.503714,highway,way
427,Bildäckerstraße,6,Nied,561,6.42,6A,Höchst,16.0,65934,Bildäckerstraße 65934 Frankfurt,50.0994027,8.5746725,highway,way
428,Billtalstraße,6,Höchst,580,6.45,6C,Höchst,17.0,65929,Billtalstraße 65929 Frankfurt,50.1050761,8.5491573,highway,way
429,Bilsteinweg,10,Preungesheim,470,10.73,10,Dornbusch,12.0,60435,Bilsteinweg 60435 Frankfurt,50.1452124,8.6979626,highway,way
430,Bindingstraße,5,Sachsenhausen-S.,323,5.3,5A,Sachsenhausen,8.0,60598,Bindingstraße 60598 Frankfurt,50.0981847,8.6893768,highway,way
431,Bingelsweg,6,Griesheim,542,6.4,6A,Gallus,16.0,65933,Bingelsweg 65933 Frankfurt,50.1011233,8.600163,highway,way
432,Birkenweg,2,Bockenheim,342,2.14,2,Bockenheim,13.0,60486,Birkenweg 60486 Frankfurt,50.1185255,8.6304272,highway,way
433,Birkholzweg,9,Eschersheim,451,9.65,9,Dornbusch,12.0,60433,Birkholzweg 60433 Frankfurt,50.1651713,8.6592086,highway,way
2605,Birminghamstraße,6,Nied,562,6.43,6A,Höchst,16.0,65934,Birminghamstraße 65934 Frankfurt,50.1043841,8.5752552,highway,way
435,Birsteiner Straße,11,Fechenheim,510,11.77,11,Ost,18.0,60386,Birsteiner Straße 60386 Frankfurt,50.135801,8.7640473,highway,way
436,Bischofsheimer Platz,1,Gallus,164,1.08,1,Gallus,16.0,60326,Bischofsheimer Platz 60326 Frankfurt,50.1011961,8.6160082,highway,way
437,Bischofsheimer Straße,1,Gallus,164,1.08,1,Gallus,16.0,60326,Bischofsheimer Straße 60326 Frankfurt,50.101296,8.6169652,highway,way
438,Bischofsweg,5,Sachsenhausen-S.,326,5.34,5A,Sachsenhausen,8.0,60598,Bischofsweg 60598 Frankfurt,50.0829749,8.68131,amenity,node
439,Bitterfelder Weg,6,Zeilsheim,611,6.49,6B,Höchst,17.0,65931,Bitterfelder Weg 65931 Frankfurt,50.0921094,8.5002812,highway,way
440,Blanchardstraße,2,Bockenheim,362,2.12,2,Bockenheim,13.0,60487,Blanchardstraße 60487 Frankfurt,50.1240161,8.6489578,highway,way
441,Blankenburger Weg,6,Zeilsheim,611,6.49,6B,Höchst,17.0,65931,Blankenburger Weg 65931 Frankfurt,50.0919417,8.5007278,highway,way
442,Blankenheimer Straße,6,Schwanheim,531,6.38,6A,Sachsenhausen,10.0,60529,Blankenheimer Straße 60529 Frankfurt,50.0857665,8.5773119,highway,way
443,Blauenstraße,5,Niederrad,371,5.35,5B,Sachsenhausen,10.0,60528,Blauenstraße 60528 Frankfurt,50.0870979,8.6420055,highway,way
3296,Blauglockenweg,6,Höchst,570,6.44,6C,Höchst,17.0,65929,Blauglockenweg 65929 Frankfurt,50.1134447,8.5481981,highway,way
444,Blauhandgasse,1,Altstadt,10,1.01,1,Ost,1.0,60311,Blauhandgasse 60311 Frankfurt,50.1097953,8.6789304,highway,way
445,Blauländchenstraße,6,Zeilsheim,611,6.49,6B,Höchst,17.0,65931,Blauländchenstraße 65931 Frankfurt,50.0934393,8.494629,highway,way
3252,Blauwiesenweg,8,Heddernheim,431,8.61,8,Nord,14.0,60439,Blauwiesenweg 60439 Frankfurt,50.1660703,8.6415616,highway,way
446,Bleichstraße,1,Innenstadt,60,1.02,1,Ost,1.0,60313,Bleichstraße 60313 Frankfurt,50.1173765,8.6814112,highway,way
447,Bleidenstraße,1,Altstadt,10,1.01,1,Ost,1.0,60311,Bleidenstraße 60311 Frankfurt,50.1127902,8.6810518,highway,way
448,Bleiweißstraße,5,Oberrad,380,5.28,5A,Sachsenhausen,8.0,60599,Bleiweißstraße 60599 Frankfurt,50.0983863,8.7202665,highway,way
450,Blumenstraße,3,Nordend-West,120,3.21,3,Ost,3.0,60318,Blumenstraße 60318 Frankfurt,50.1190435,8.6817602,highway,way
3294,Blütenweg,6,Höchst,570,6.44,6C,Höchst,17.0,65929,Blütenweg 65929 Frankfurt,50.1140074,8.5480249,highway,way
451,Bockenheimer Anlage,2,Westend-Süd,110,2.1,2,Bockenheim,3.0,60322,Bockenheimer Anlage 60322 Frankfurt,50.11702555,8.67572734736429,leisure,way
452,Bockenheimer Landstraße,2,Westend-Süd,100,2.11,2,Bockenheim,3.0,60325,Bockenheimer Landstraße 60325 Frankfurt,50.118857,8.6606429,highway,way
452,Bockenheimer Landstraße,2,Westend-Süd,110,2.1,2,Bockenheim,3.0,60306,Bockenheimer Landstraße 60306 Frankfurt,50.1156386,8.6698776,highway,way
452,Bockenheimer Landstraße,2,Westend-Süd,110,2.1,2,Bockenheim,3.0,60323,Bockenheimer Landstraße 60323 Frankfurt,50.1173397,8.665355,amenity,node
454,Bockenheimer Wiesenweg,2,Bockenheim,362,2.12,2,Bockenheim,13.0,60487,Bockenheimer Wiesenweg 60487 Frankfurt,50.1275963,8.637064,highway,way
459,Böcklinstraße,5,Sachsenhausen-N.,322,5.33,5A,Sachsenhausen,8.0,60596,Böcklinstraße 60596 Frankfurt,50.0997843,8.6750055,amenity,node
455,Bodelschwinghstraße,11,Fechenheim,510,11.77,11,Ost,18.0,60386,Bodelschwinghstraße 60386 Frankfurt,50.1236832,8.7637824,highway,way
456,Bodenbacher Weg,5,Sachsenhausen-S.,326,5.34,5A,Sachsenhausen,8.0,60598,Bodenbacher Weg 60598 Frankfurt,50.0853086,8.672297,highway,way
457,Bodenseestraße,11,Fechenheim,510,11.77,11,Ost,18.0,60386,Bodenseestraße 60386 Frankfurt,50.124459,8.7672562,highway,way
458,Bodenstedtstraße,5,Sachsenhausen-N.,324,5.32,5A,Sachsenhausen,8.0,60594,Bodenstedtstraße 60594 Frankfurt,50.1033038,8.6863489,highway,way
3304,Bodenweg,4,Bornheim,272,4.22,4,Ost,6.0,60389,Bodenweg 60389 Frankfurt,50.1353246,8.7091261,highway,way
460,Boehlepark,5,Sachsenhausen-S.,323,5.3,5A,Sachsenhausen,8.0,60598,Boehlepark 60598 Frankfurt,50.0875203,8.69021351106043,leisure,way
461,Böhmerstraße,2,Westend-Nord,191,2.09,2,Dornbusch,3.0,60322,Böhmerstraße 60322 Frankfurt,50.1231367,8.6734233,amenity,node
467,Bolongarostraße,6,Nied,561,6.42,6A,Höchst,17.0,65934,Bolongarostraße 65934 Frankfurt,50.1013756,8.5615862,highway,way
467,Bolongarostraße,6,Höchst,580,6.45,6C,Höchst,17.0,65929,Bolongarostraße 65929 Frankfurt,50.1018414,8.5541942,highway,way
468,Bommersheimer Straße,7,Praunheim,422,7.59,7,Bockenheim,14.0,60488,Bommersheimer Straße 60488 Frankfurt,50.1472587,8.6115625,highway,way
469,Bonameser Hainstraße,10,Bonames,491,10.7,10,Nord,14.0,60437,Bonameser Hainstraße 60437 Frankfurt,50.1820868,8.6621033,highway,way
470,Bonameser Hintergasse,10,Bonames,491,10.7,10,Nord,14.0,60437,Bonameser Hintergasse 60437 Frankfurt,50.1814958,8.6629887,highway,way
471,Bonameser Mittelgasse,10,Bonames,491,10.7,10,Nord,14.0,60437,Bonameser Mittelgasse 60437 Frankfurt,50.1812098,8.6627534,highway,way
473,Bonameser Straße,9,Eschersheim,451,9.65,9,Dornbusch,12.0,60433,Bonameser Straße 60433 Frankfurt,50.1749925,8.6698605,highway,way
3470,Bonifatiuspark,12,Kalbach-Riedberg,651,12.79,12,Nord,14.0,60438,Bonifatiuspark 60438 Frankfurt,50.1776325,8.639933976576625,leisure,way
2683,Bonifatiusstraße,12,Kalbach-Riedberg,650,12.79,12,Nord,14.0,60437,Bonifatiusstraße 60437 Frankfurt,50.1846725,8.6516003,highway,way
462,Bönstädter Straße,4,Bornheim,272,4.22,4,Ost,6.0,60385,Bönstädter Straße 60385 Frankfurt,50.132427,8.7142082,highway,way
475,Bornemannstraße,5,Sachsenhausen-S.,332,5.29,5A,Sachsenhausen,8.0,60599,Bornemannstraße 60599 Frankfurt,50.0984984,8.701762,highway,way
652,Börneplatz,1,Innenstadt,80,1.01,1,Ost,1.0,60311,Börneplatz 60311 Frankfurt,50.1113816,8.6882506,highway,way
3291,Bornheimer Fünffingerplätzchen,4,Bornheim,271,4.23,4,Ost,6.0,60385,Bornheimer Fünffingerplätzchen 60385 Frankfurt,50.1275466,8.709549004120069,highway,way
476,Bornheimer Landstraße,3,Nordend-Ost,230,3.2,3,Ost,3.0,60316,Bornheimer Landstraße 60316 Frankfurt,50.1218229,8.698757,highway,way
477,Bornheimer Landwehr,4,Bornheim,282,4.24,4,Ost,5.0,60385,Bornheimer Landwehr 60385 Frankfurt,50.1226167,8.71125,highway,way
2646,Bornweg,13,Nieder-Erlenbach,640,13.8,13,Nord,14.0,60437,Bornweg 60437 Frankfurt,50.2020239,8.7088604,highway,way
2862,Bornweidstraße,16,Bergen-Enkheim,680,16.83,16,Ost,18.0,60388,Bornweidstraße 60388 Frankfurt,50.1476762,8.755329,highway,way
478,Bornwiesenweg,3,Nordend-West,120,3.21,3,Ost,3.0,60322,Bornwiesenweg 60322 Frankfurt,50.1217917,8.6791229,highway,way
464,Börsenplatz,1,Innenstadt,50,1.02,1,Ost,1.0,60313,Börsenplatz 60313 Frankfurt,50.1149184,8.6768437,amenity,node
465,Börsenstraße,1,Innenstadt,50,1.02,1,Ost,1.0,60313,Börsenstraße 60313 Frankfurt,50.1153189,8.6768256,highway,way
479,Borsigallee,11,Seckbach,390,11.75,11,Ost,18.0,60388,Borsigallee 60388 Frankfurt,50.1404537,8.7509792,amenity,node
480,Boseweg,6,Schwanheim,532,6.37,6A,Sachsenhausen,10.0,60529,Boseweg 60529 Frankfurt,50.0816238,8.616803,highway,way
3381,Boskoopstraße,10,Preungesheim,470,10.73,10,Dornbusch,12.0,60435,Boskoopstraße 60435 Frankfurt,50.1582623,8.6986388,highway,way
481,Boßstraße,10,Preungesheim,470,10.73,10,Dornbusch,12.0,60435,Boßstraße 60435 Frankfurt,50.1539261,8.6899734,highway,way
482,Bottenhorner Weg,7,Rödelheim,402,7.56,7,Bockenheim,11.0,60489,Bottenhorner Weg 60489 Frankfurt,50.1200356,8.6029527,highway,way
466,Böttgerstraße,3,Nordend-Ost,222,3.18,3,Ost,6.0,60389,Böttgerstraße 60389 Frankfurt,50.1297047,8.6993964,amenity,node
483,Brahmsstraße,3,Nordend-West,212,3.17,3,Ost,3.0,60318,Brahmsstraße 60318 Frankfurt,50.1305338,8.6878478,highway,way
484,Brand,6,Höchst,591,6.46,6C,Höchst,17.0,65929,Brand 65929 Frankfurt,50.0998858,8.5476214,highway,way
2647,Brandenburger Weg,13,Nieder-Erlenbach,640,13.8,13,Nord,14.0,60437,Brandenburger Weg 60437 Frankfurt,50.2053659,8.7064179,highway,way
3148,Brandhöfchen,10,Bonames,491,10.7,10,Nord,14.0,60437,Brandhöfchen 60437 Frankfurt,50.1800562,8.6610665,highway,way
485,Braubachstraße,1,Altstadt,10,1.01,1,Ost,1.0,60311,Braubachstraße 60311 Frankfurt,50.1113592,8.6836037,highway,way
486,Braumannstraße,10,Preungesheim,470,10.73,10,Dornbusch,12.0,60435,Braumannstraße 60435 Frankfurt,50.1525087,8.6906565,highway,way
487,Braunfelsstraße,2,Bockenheim,163,2.15,2,Bockenheim,13.0,60486,Braunfelsstraße 60486 Frankfurt,50.1139837,8.6355509,highway,way
488,Braunschweiger Weg,6,Zeilsheim,611,6.49,6B,Höchst,17.0,65931,Braunschweiger Weg 65931 Frankfurt,50.0939102,8.4999451,highway,way
489,Bregenzer Straße,11,Fechenheim,520,11.78,11,Ost,18.0,60386,Bregenzer Straße 60386 Frankfurt,50.117925,8.7688879,highway,way
490,Breidensteiner Weg,7,Rödelheim,402,7.56,7,Bockenheim,11.0,60489,Breidensteiner Weg 60489 Frankfurt,50.1196445,8.6073298,highway,way
491,Breite Gasse,1,Innenstadt,70,1.01,1,Ost,1.0,60313,Breite Gasse 60313 Frankfurt,50.1139784,8.6909462,highway,way
492,Breitenbachbrücke,7,Bockenheim,343,7.57,2,Bockenheim,11.0,60487,Breitenbachbrücke 60487 Frankfurt,50.1254398,8.633799,highway,way
493,Breitenbachstraße,7,Bockenheim,343,7.57,2,Bockenheim,11.0,60487,Breitenbachstraße 60487 Frankfurt,50.1260039,8.6327888,highway,way
494,Breitlacherstraße,7,Rödelheim,402,7.56,7,Bockenheim,11.0,60489,Breitlacherstraße 60489 Frankfurt,50.1221276,8.6070176,amenity,node
495,Bremer Platz,2,Westend-Nord,191,2.09,2,Dornbusch,3.0,60322,Bremer Platz 60322 Frankfurt,50.1238796,8.6699362,highway,way
496,Bremer Straße,2,Westend-Nord,191,2.09,2,Dornbusch,3.0,60323,Bremer Straße 60323 Frankfurt,50.1251841,8.6702745,highway,way
496,Bremer Straße,2,Westend-Nord,191,2.09,2,Dornbusch,3.0,60322,Bremer Straße 60322 Frankfurt,50.1280402,8.6729197,highway,way
497,Brendelstraße,7,Hausen,410,7.58,7,Bockenheim,11.0,60488,Brendelstraße 60488 Frankfurt,50.1318213,8.6244449,highway,way
498,Brentanopark,7,Rödelheim,401,7.55,7,Bockenheim,11.0,60489,Brentanopark 60489 Frankfurt,50.1240272,8.615949552671282,leisure,way
499,Brentanostraße,2,Westend-Süd,100,2.11,2,Bockenheim,13.0,60325,Brentanostraße 60325 Frankfurt,50.1181373,8.6626502,highway,way
500,Breslauer Straße,5,Sachsenhausen-S.,326,5.34,5A,Sachsenhausen,8.0,60598,Breslauer Straße 60598 Frankfurt,50.0913538,8.6782179,highway,way
501,Breubergstraße,5,Niederrad,371,5.35,5B,Sachsenhausen,10.0,60528,Breubergstraße 60528 Frankfurt,50.0856382,8.6420579,highway,way
502,Breuerwiesenstraße,6,Höchst,580,6.45,6C,Höchst,17.0,65929,Breuerwiesenstraße 65929 Frankfurt,50.1076056,8.5532783,highway,way
503,Breulsweg,5,Sachsenhausen-S.,332,5.29,5A,Sachsenhausen,8.0,60599,Breulsweg 60599 Frankfurt,50.0977435,8.7058182,highway,way
504,Briandring,5,Sachsenhausen-S.,323,5.3,5A,Sachsenhausen,8.0,60598,Briandring 60598 Frankfurt,50.0799274,8.6760829,highway,way
506,Brohltalstraße,6,Schwanheim,531,6.38,6A,Sachsenhausen,10.0,60529,Brohltalstraße 60529 Frankfurt,50.0886719,8.5770049,highway,way
507,Brombeerpfad,6,Griesheim,542,6.4,6A,Gallus,16.0,65933,Brombeerpfad 65933 Frankfurt,50.1073985,8.6029478,highway,way
508,Brommstraße,9,Dornbusch,463,9.69,9,Dornbusch,12.0,60320,Brommstraße 60320 Frankfurt,50.1390767,8.6828759,highway,way
505,Brönnerstraße,1,Innenstadt,60,1.02,1,Ost,1.0,60313,Brönnerstraße 60313 Frankfurt,50.1157428,8.6832453,highway,way
509,Broßstraße,2,Bockenheim,362,2.12,2,Bockenheim,13.0,60487,Broßstraße 60487 Frankfurt,50.1286934,8.6484323,highway,way
510,Bruchfeldplatz,5,Niederrad,371,5.35,5B,Sachsenhausen,10.0,60528,Bruchfeldplatz 60528 Frankfurt,50.08704565,8.644796683238763,leisure,way
511,Bruchfeldstraße,5,Niederrad,371,5.35,5B,Sachsenhausen,10.0,60528,Bruchfeldstraße 60528 Frankfurt,50.0863877,8.6417086,amenity,node
512,Bruchstraße,5,Sachsenhausen-N.,324,5.32,5A,Sachsenhausen,8.0,60594,Bruchstraße 60594 Frankfurt,50.1028419,8.6871746,amenity,node
513,Brückenstraße,5,Sachsenhausen-N.,300,5.31,5A,Sachsenhausen,8.0,60594,Brückenstraße 60594 Frankfurt,50.1012226,8.6862088,highway,way
514,Brückhofstraße,1,Innenstadt,80,1.01,1,Ost,1.0,60311,Brückhofstraße 60311 Frankfurt,50.1103175,8.6883509,highway,way
515,Brüder-Grimm-Straße,4,Ostend,251,4.25,4,Ost,5.0,60314,Brüder-Grimm-Straße 60314 Frankfurt,50.1173469,8.7060504,highway,way
515,Brüder-Grimm-Straße,4,Ostend,252,4.25,4,Ost,5.0,60385,Brüder-Grimm-Straße 60385 Frankfurt,50.1203673,8.7113897,highway,way
2863,Bruderhofstraße,16,Bergen-Enkheim,680,16.83,16,Ost,18.0,60388,Bruderhofstraße 60388 Frankfurt,50.1506118,8.7561147,highway,way
516,Brühlfeld,8,Heddernheim,431,8.61,8,Nord,14.0,60439,Brühlfeld 60439 Frankfurt,50.1635941,8.6475004,highway,way
517,Brühlstraße,8,Heddernheim,431,8.61,8,Nord,14.0,60439,Brühlstraße 60439 Frankfurt,50.1608357,8.6475001,amenity,node
3716,Brüningpark,6,Höchst,580,6.45,6C,Höchst,17.0,65929,Brüningpark 65929 Frankfurt,50.097305,8.545673216702818,leisure,way
518,Brüningstraße,6,Höchst,591,6.46,6C,Höchst,17.0,65929,Brüningstraße 65929 Frankfurt,50.0975652,8.5434644,highway,way
519,Brunnenpfad,6,Nied,562,6.43,6A,Höchst,16.0,65934,Brunnenpfad 65934 Frankfurt,50.1083636,8.5840089,highway,way
520,Brunnenstraße,5,Oberrad,380,5.28,5A,Sachsenhausen,8.0,60599,Brunnenstraße 60599 Frankfurt,50.1002686,8.7257687,highway,way
3147,Bruno-Asch-Anlage,6,Höchst,591,6.46,6C,Höchst,17.0,65929,Bruno-Asch-Anlage 65929 Frankfurt,50.1025371,8.54594279216779,leisure,way
3034,Bruno-Poelke-Straße,2,Bockenheim,163,2.15,2,Bockenheim,13.0,60486,Bruno-Poelke-Straße 60486 Frankfurt,50.1135556,8.6144671,highway,way
2627,Bruno-Stürmer-Straße,6,Schwanheim,532,6.37,6A,Sachsenhausen,10.0,60529,Bruno-Stürmer-Straße 60529 Frankfurt,50.0825378,8.5942251,highway,way
3501,Brüsseler Straße,1,Gallus,161,1.06,1,Gallus,13.0,60327,Brüsseler Straße 60327 Frankfurt,50.1108126,8.6531759,highway,way
3241,Buber-Neumann-Weg,8,Heddernheim,431,8.61,8,Nord,14.0,60439,Buber-Neumann-Weg 60439 Frankfurt,50.1645488,8.6407749,highway,way
521,Buchbornstraße,7,Praunheim,422,7.59,7,Bockenheim,14.0,60488,Buchbornstraße 60488 Frankfurt,50.1468727,8.6193288,highway,way
2934,Buchenhorster Hof (Wohnplatz),16,Bergen-Enkheim,680,16.83,16,Ost,18.0,60388,Buchenhorster Hof (Wohnplatz) 60388 Frankfurt,,,,
522,Buchenrodestraße,5,Niederrad,371,5.35,5B,Sachsenhausen,10.0,60528,Buchenrodestraße 60528 Frankfurt,50.0890709,8.6592859,highway,way
523,Buchenstraße,6,Griesheim,552,6.41,6A,Gallus,16.0,65933,Buchenstraße 65933 Frankfurt,50.0958851,8.6070119,highway,way
524,Buchgasse,1,Altstadt,10,1.01,1,Ost,1.0,60311,Buchgasse 60311 Frankfurt,50.1099119,8.6796317,highway,way
3319,Buchrainplatz,5,Oberrad,380,5.28,5A,Sachsenhausen,8.0,60599,Buchrainplatz 60599 Frankfurt,50.1006931,8.7237386,highway,way
525,Buchrainstraße,5,Oberrad,380,5.28,5A,Sachsenhausen,8.0,60599,Buchrainstraße 60599 Frankfurt,50.0986702,8.7244186,highway,way
3583,Buchsbaumweg,10,Berkersheim,500,10.74,10,Nord,14.0,60435,Buchsbaumweg 60435 Frankfurt,50.166556,8.6883203,highway,way
3583,Buchsbaumweg,10,Frankfurter Berg,492,10.71,10,Nord,14.0,60433,Buchsbaumweg 60433 Frankfurt,50.166556,8.6883203,highway,way
3474,Buchscheerfeldweg,5,Sachsenhausen-S.,325,5.34,5A,Sachsenhausen,10.0,60598,Buchscheerfeldweg 60598 Frankfurt,50.0825913,8.6693356,highway,way
526,Buchwaldstraße,4,Bornheim,290,4.22,4,Ost,6.0,60385,Buchwaldstraße 60385 Frankfurt,50.1300571,8.7167025,amenity,node
528,Bückeburger Weg,6,Zeilsheim,611,6.49,6B,Höchst,17.0,65931,Bückeburger Weg 65931 Frankfurt,50.0922782,8.499651,highway,way
2762,Budapester Straße,15,Nieder-Eschbach,670,15.82,15,Nord,14.0,60437,Budapester Straße 60437 Frankfurt,50.2036804,8.6721253,highway,way
529,Büdinger Straße,10,Eckenheim,461,10.72,10,Dornbusch,12.0,60435,Büdinger Straße 60435 Frankfurt,50.1514413,8.68426,highway,way
532,Bundenweg,9,Dornbusch,463,9.69,9,Dornbusch,12.0,60320,Bundenweg 60320 Frankfurt,50.140338,8.6809959,highway,way
530,Bürgeler Straße,11,Fechenheim,520,11.78,11,Ost,18.0,60386,Bürgeler Straße 60386 Frankfurt,50.1176225,8.7730855,highway,way
574,Burgenlandweg,5,Oberrad,380,5.28,5A,Sachsenhausen,8.0,60599,Burgenlandweg 60599 Frankfurt,50.0941736,8.7278512,highway,way
3564,Bürgermeister-Schubert-Park,6,Griesheim,541,6.39,6A,Gallus,16.0,65933,Bürgermeister-Schubert-Park 65933 Frankfurt,50.09049645,8.615013448336061,leisure,way
2713,Bürgerstraße,14,Harheim,660,14.81,14,Nord,14.0,60437,Bürgerstraße 60437 Frankfurt,50.1870967,8.702308,highway,way
575,Burgfriedenstraße,7,Rödelheim,402,7.56,7,Bockenheim,11.0,60489,Burgfriedenstraße 60489 Frankfurt,50.1239592,8.6099976,highway,way
576,Burggraben,6,Höchst,580,6.45,6C,Höchst,17.0,65929,Burggraben 65929 Frankfurt,50.098157650000005,8.546371207740993,leisure,way
577,Burgholzer Platz,9,Eschersheim,452,9.66,9,Dornbusch,12.0,60433,Burgholzer Platz 60433 Frankfurt,50.1557204,8.6691484,highway,way
578,Burgholzer Straße,9,Eschersheim,452,9.66,9,Dornbusch,12.0,60433,Burgholzer Straße 60433 Frankfurt,50.1557703,8.667752,highway,way
579,Burglehen,11,Fechenheim,520,11.78,11,Ost,18.0,60386,Burglehen 60386 Frankfurt,50.1218563,8.7718833,highway,way
580,Burgstraße,3,Nordend-Ost,221,3.19,3,Ost,3.0,60316,Burgstraße 60316 Frankfurt,50.1226824,8.6951769,amenity,node
580,Burgstraße,3,Nordend-Ost,222,3.18,3,Ost,6.0,60389,Burgstraße 60389 Frankfurt,50.1269236,8.7022909,amenity,node
580,Burgstraße,3,Nordend-Ost,230,3.2,3,Ost,3.0,60385,Burgstraße 60385 Frankfurt,50.1276297,8.7049104,highway,way
581,Burgunderweg,6,Unterliederbach,622,6.52,6C,Höchst,17.0,65929,Burgunderweg 65929 Frankfurt,50.1130865,8.5377152,highway,way
582,Burnitzstraße,5,Sachsenhausen-N.,322,5.33,5A,Sachsenhausen,8.0,60596,Burnitzstraße 60596 Frankfurt,50.097426,8.6733865,highway,way
583,Butzbacher Straße,3,Nordend-Ost,222,3.18,3,Ost,6.0,60389,Butzbacher Straße 60389 Frankfurt,50.1324803,8.7000999,highway,way
584,Butznickelweg,6,Zeilsheim,612,6.5,6B,Höchst,17.0,65931,Butznickelweg 65931 Frankfurt,50.0975021,8.5030466,highway,way
585,Buzzistraße,2,Bockenheim,163,2.15,2,Bockenheim,13.0,60486,Buzzistraße 60486 Frankfurt,50.1108793,8.6295848,highway,way
3003,Cäcilia-Lauth-Spielpark,6,Sossenheim,632,6.54,6C,Höchst,17.0,65936,Cäcilia-Lauth-Spielpark 65936 Frankfurt,50.126751549999994,8.568543920556063,leisure,way
3758,Cäcilie-Breckheimer-Platz,11,Riederwald,262,11.76,11,Ost,18.0,60386,Cäcilie-Breckheimer-Platz 60386 Frankfurt,50.1284424,8.734420798600787,highway,way
586,Cäcilienstraße,9,Eschersheim,451,9.65,9,Dornbusch,12.0,60433,Cäcilienstraße 60433 Frankfurt,50.1578444,8.6581993,highway,way
587,Camberger Straße,1,Gallus,153,1.05,1,Gallus,4.0,60327,Camberger Straße 60327 Frankfurt,50.1000845,8.648591,highway,way
588,Camillo-Sitte-Weg,7,Praunheim,422,7.59,7,Bockenheim,14.0,60488,Camillo-Sitte-Weg 60488 Frankfurt,50.1429591,8.6061753,highway,way
2684,Carbonestraße,12,Kalbach-Riedberg,650,12.79,12,Nord,14.0,60437,Carbonestraße 60437 Frankfurt,50.1836838,8.6530087,highway,way
2792,Carl-Barthel-Weg,5,Sachsenhausen-S.,323,5.3,5A,Sachsenhausen,8.0,60598,Carl-Barthel-Weg 60598 Frankfurt,50.0898574,8.6818312,highway,way
1363,Carl-Benz-Straße,11,Fechenheim,510,11.77,11,Ost,5.0,60314,Carl-Benz-Straße 60314 Frankfurt,50.1223213,8.747434,highway,way
1363,Carl-Benz-Straße,11,Fechenheim,510,11.77,11,Ost,18.0,60386,Carl-Benz-Straße 60386 Frankfurt,50.1179661,8.7585724,highway,way
589,Carl-Goerdeler-Straße,9,Dornbusch,462,9.69,9,Dornbusch,12.0,60320,Carl-Goerdeler-Straße 60320 Frankfurt,50.1403264,8.6716946,highway,way
590,Carl-Heicke-Weg,4,Ostend,252,4.25,4,Ost,5.0,60385,Carl-Heicke-Weg 60385 Frankfurt,50.1193836,8.7170407,highway,way
3667,Carl-Hermann-Rudloff-Allee,12,Kalbach-Riedberg,651,12.79,12,Nord,14.0,60438,Carl-Hermann-Rudloff-Allee 60438 Frankfurt,50.1740386,8.6257508,highway,way
2864,Carl-Schultis-Straße,16,Bergen-Enkheim,680,16.83,16,Ost,18.0,60388,Carl-Schultis-Straße 60388 Frankfurt,50.1528053,8.7475204,highway,way
591,Carl-Sonnenschein-Straße,6,Sossenheim,632,6.54,6C,Höchst,17.0,65936,Carl-Sonnenschein-Straße 65936 Frankfurt,50.1240315,8.5719693,highway,way
3200,Carl-Theodor-Reiffenstein-Platz,1,Altstadt,10,1.01,1,Ost,1.0,60313,Carl-Theodor-Reiffenstein-Platz 60313 Frankfurt,50.11409135,8.683973818422317,highway,way
592,Carl-Ulrich-Brücke,11,Fechenheim,520,11.78,11,Ost,18.0,60386,Carl-Ulrich-Brücke 60386 Frankfurt,50.112438600000004,8.758305338327292,man_made,way
3330,Carl-von-Noorden-Platz,5,Sachsenhausen-N.,322,5.33,5A,Sachsenhausen,8.0,60596,Carl-von-Noorden-Platz 60596 Frankfurt,50.0974865,8.6632336,highway,way
593,Carl-von-Weinberg-Park,5,Niederrad,372,5.36,5B,Sachsenhausen,10.0,60528,Carl-von-Weinberg-Park 60528 Frankfurt,50.07489725,8.645861962068217,leisure,way
594,Carl-von-Weinberg-Straße,2,Westend-Nord,192,2.09,2,Dornbusch,12.0,60320,Carl-von-Weinberg-Straße 60320 Frankfurt,50.1316561,8.6661722,highway,way
3273,Carl-Weigert-Platz,5,Sachsenhausen-N.,322,5.33,5A,Sachsenhausen,8.0,60596,Carl-Weigert-Platz 60596 Frankfurt,50.0964745,8.6654974,highway,way
2865,Carl-Zeiss-Straße,16,Bergen-Enkheim,680,16.83,16,Ost,18.0,60388,Carl-Zeiss-Straße 60388 Frankfurt,50.1419286,8.7454746,highway,way
3268,Carlo-Schmid-Platz,2,Bockenheim,361,2.12,2,Bockenheim,13.0,60325,Carlo-Schmid-Platz 60325 Frankfurt,50.1203358,8.6513775,amenity,node
3534,Cäsar-von-Hofacker-Straße,12,Kalbach-Riedberg,651,12.79,12,Nord,14.0,60438,Cäsar-von-Hofacker-Straße 60438 Frankfurt,50.1802523,8.6224798,highway,way
3208,Casimirstraße,16,Bergen-Enkheim,680,16.83,16,Ost,18.0,60388,Casimirstraße 60388 Frankfurt,50.1571319,8.743353,highway,way
595,Casparistraße,10,Eckenheim,461,10.72,10,Dornbusch,12.0,60435,Casparistraße 60435 Frankfurt,50.1432341,8.6850853,highway,way
596,Cassellastraße,11,Fechenheim,510,11.77,11,Ost,18.0,60386,Cassellastraße 60386 Frankfurt,50.1319437,8.7579547,highway,way
3512,Celsiusplatz,2,Bockenheim,342,2.14,2,Bockenheim,13.0,60486,Celsiusplatz 60486 Frankfurt,50.11739595,8.633116445981635,highway,way
3324,Cézanneweg,12,Kalbach-Riedberg,651,12.79,12,Nord,14.0,60438,Cézanneweg 60438 Frankfurt,50.1763951,8.6440558,highway,way
597,Chamissostraße,9,Ginnheim,441,9.67,9,Nord,12.0,60431,Chamissostraße 60431 Frankfurt,50.1470806,8.6607891,highway,way
