Address,Latitude,Longitude,Straßennummer,Straßenname,Folge,Hausnr. (von),Zusatz zur Hausnr (von),Hausnr. (bis),Zusatz zur Hausnr (bis),Ortsbezirk,Stadtteil Name,Stadtbezirk,Stadtbezirksvorst,Schiedsleutebezirk,Sozialrathaus Name,Polizeirevier,Postleitzahl
Theodor-Neubürger-Straße 60439 Frankfurt,50.1682589,8.6404079,3338,Theodor-Neubürger-Straße,,,,,,8,Niederursel,483,8.63,8,Nord,14.0,60439
Am Wetterhahn 60437 Frankfurt,50.1866279,8.6934504,2711,Am Wetterhahn,,,,,,14,Harheim,660,14.81,14,Nord,14.0,60437
Ludwig-Quidde-Straße 60437 Frankfurt,50.2001782,8.6654935,2773,Ludwig-Quidde-Straße,,,,,,15,Nieder-Eschbach,670,15.82,15,Nord,14.0,60437
Ronneburgstraße 60435 Frankfurt,50.1509024,8.6891106,2039,Ronneburgstraße,ungerade,,,,,10,Eckenheim,461,10.72,10,Dornbusch,12.0,60435
Arnoldstraße 60437 Frankfurt,50.1908101,8.6654422,2930,Arnoldstraße,,,,,,15,Nieder-Eschbach,670,15.82,15,Nord,14.0,60437
Linnéstraße 60385 Frankfurt,50.1228773,8.7068665,1601,Linnéstraße,ungerade,1,,7,,4,Bornheim,282,4.24,4,Ost,5.0,60385
Runkeler Straße 60435 Frankfurt,50.1436285,8.6935636,2074,Runkeler Straße,,,,,,10,Eckenheim,461,10.72,10,Dornbusch,12.0,60435
Im Herzen von Europa 60528 Frankfurt,50.0660881,8.6484643,3763,Im Herzen von Europa,,,,,,5,Sachsenhausen-S.,325,5.34,5A,Sachsenhausen,10.0,60528
Barchfeldstraße 60435 Frankfurt,50.1480691,8.6830828,374,Barchfeldstraße,,,,,,10,Eckenheim,461,10.72,10,Dornbusch,12.0,60435
Gießener Straße 60435 Frankfurt,50.1512168,8.6883666,937,Gießener Straße,gerade,10,,30,,3,Nordend-West,213,3.17,3,Ost,12.0,60435
Fröbelstraße 60487 Frankfurt,50.1241305,8.6366325,883,Fröbelstraße,,,,,,2,Bockenheim,350,2.13,2,Bockenheim,13.0,60487
Georg-Allgaier-Straße 60437 Frankfurt,50.1917793,8.6479022,3463,Georg-Allgaier-Straße,,,,,,12,Kalbach-Riedberg,650,12.79,12,Nord,14.0,60437
Willemineallee 60528 Frankfurt,50.0785954,8.642065282231162,3418,Willemineallee,,,,,,5,Niederrad,372,5.36,5B,Sachsenhausen,10.0,60528
Utrilloweg 60438 Frankfurt,50.178793,8.6465896,3329,Utrilloweg,,,,,,12,Kalbach-Riedberg,651,12.79,12,Nord,14.0,60438
Am Höllenberg 60437 Frankfurt,50.1865126,8.6337032,3280,Am Höllenberg,,,,,,12,Kalbach-Riedberg,650,12.79,12,Nord,14.0,60437
Vogelstraße 60528 Frankfurt,50.0779039,8.6508437,2414,Vogelstraße,,,,,,5,Niederrad,372,5.36,5B,Sachsenhausen,10.0,60528
Josef-May-Straße 60489 Frankfurt,50.1270646,8.6153222,1332,Josef-May-Straße,,,,,,7,Rödelheim,401,7.55,7,Bockenheim,11.0,60489
Eckenheimer Landstraße 60435 Frankfurt,50.1466145,8.6826451,684,Eckenheimer Landstraße,ungerade,341,,505,,10,Eckenheim,461,10.72,10,Dornbusch,12.0,60435
Weinbergstraße 65931 Frankfurt,50.0764787,8.5184615,2468,Weinbergstraße,,,,,,6,Sindlingen,601,6.47,6B,Höchst,17.0,65931
Mauerweg 60316 Frankfurt,50.1188901,8.6928727,1688,Mauerweg,,,,,,3,Nordend-Ost,130,3.2,3,Ost,3.0,60316
Hornauer Straße 60326 Frankfurt,50.1036598,8.6290651,1225,Hornauer Straße,,,,,,1,Gallus,165,1.08,1,Gallus,4.0,60326
Sachsenhäuser Landwehrweg 60599 Frankfurt,50.0895918,8.7035784,2082,Sachsenhäuser Landwehrweg,ungerade,39,,191,,5,Sachsenhausen-S.,332,5.29,5A,Sachsenhausen,8.0,60599
Josef-Eicher-Straße 60437 Frankfurt,50.1916256,8.6502773,3459,Josef-Eicher-Straße,,,,,,12,Kalbach-Riedberg,650,12.79,12,Nord,14.0,60437
Luciusstraße 65929 Frankfurt,50.0982786,8.5423121,1618,Luciusstraße,,,,,,6,Höchst,591,6.46,6C,Höchst,17.0,65929
Parsevalstraße 60486 Frankfurt,50.1139762,8.6259491,3434,Parsevalstraße,,,,,,2,Bockenheim,163,2.15,2,Bockenheim,13.0,60486
Alt-Höchst 65929 Frankfurt,50.099587,8.5474746,64,Alt-Höchst,,,,,,6,Höchst,591,6.46,6C,Höchst,17.0,65929
Gaußstraße 60316 Frankfurt,50.1205989,8.6923077,903,Gaußstraße,,,,,,3,Nordend-Ost,130,3.2,3,Ost,3.0,60316
Andreaestraße 60385 Frankfurt,50.1262422,8.7116455,254,Andreaestraße,,,,,,4,Bornheim,281,4.24,4,Ost,6.0,60385
Heimatring 60596 Frankfurt,50.0925945,8.6689487,1119,Heimatring,,,,,,5,Sachsenhausen-N.,322,5.33,5A,Sachsenhausen,8.0,60596
Buzzistraße 60486 Frankfurt,50.1108793,8.6295848,585,Buzzistraße,,,,,,2,Bockenheim,163,2.15,2,Bockenheim,13.0,60486
Diebsgrundweg 60487 Frankfurt,50.1308006,8.6508089,635,Diebsgrundweg,,,,,,2,Bockenheim,362,2.12,2,Bockenheim,13.0,60487
Hellerhofstraße 60327 Frankfurt,50.1042858,8.6471815,1135,Hellerhofstraße,,,,,,1,Gallus,161,1.06,1,Gallus,4.0,60327
In der Erle 60388 Frankfurt,50.1474835,8.7638155,3699,In der Erle,,,,,,16,Bergen-Enkheim,680,16.83,16,Ost,18.0,60388
Höchster Stadtpark 65936 Frankfurt,50.1114295,8.55608658875493,1188,Höchster Stadtpark,,,,,,6,Sossenheim,631,6.53,6C,Höchst,17.0,65936
Kracauerstraße 60488 Frankfurt,50.1472412,8.6260521,3146,Kracauerstraße,,,,,,7,Praunheim,424,7.6,7,Bockenheim,14.0,60488
Weisbachstraße 60314 Frankfurt,50.1107027,8.7109381,2470,Weisbachstraße,,,,,,4,Ostend,261,4.27,4,Ost,5.0,60314
Max-Hartig-Weg 65929 Frankfurt,50.1113529,8.5265209,1694,Max-Hartig-Weg,,,,,,6,Unterliederbach,621,6.51,6C,Höchst,17.0,65929
Chattenweg 65929 Frankfurt,50.1133292,8.5362683,598,Chattenweg,,,,,,6,Unterliederbach,622,6.52,6C,Höchst,17.0,65929
Riederhofstraße 60314 Frankfurt,50.1148516,8.7337702,2011,Riederhofstraße,,,,,,4,Ostend,261,4.27,4,Ost,5.0,60314
Herbert-von-Meister-Straße 65931 Frankfurt,50.0804296,8.5138041,1145,Herbert-von-Meister-Straße,,,,,,6,Sindlingen,601,6.47,6B,Höchst,17.0,65931
An der Schwarzbachmühle 60529 Frankfurt,50.0828387,8.601665,245,An der Schwarzbachmühle,,,,,,6,Schwanheim,532,6.37,6A,Sachsenhausen,10.0,60529
Am Büttelstück 60388 Frankfurt,50.1386289,8.7305132,3137,Am Büttelstück,,,,,,11,Seckbach,390,11.75,11,Ost,18.0,60388
Gottfried-Keller-Straße 60431 Frankfurt,50.1481061,8.662436,970,Gottfried-Keller-Straße,,,,,,9,Dornbusch,442,9.68,9,Dornbusch,12.0,60431
Hinter den Obergärten 60388 Frankfurt,50.1574278,8.7601027,2881,Hinter den Obergärten,,,,,,16,Bergen-Enkheim,680,16.83,16,Ost,18.0,60388
Schwarzbachstraße 60529 Frankfurt,50.0857407,8.583406,2194,Schwarzbachstraße,,,,,,6,Schwanheim,531,6.38,6A,Sachsenhausen,10.0,60529
Severusstraße 60439 Frankfurt,50.1562268,8.6402207,2226,Severusstraße,ungerade,1,,45,,8,Heddernheim,431,8.61,8,Nord,14.0,60439
Affentorplatz 60594 Frankfurt,50.10426035,8.689667027180581,18,Affentorplatz,ungerade,1,,,,5,Sachsenhausen-N.,300,5.31,5A,Sachsenhausen,8.0,60594
Heinrich-Kraft-Park 60386 Frankfurt,50.13820115,8.766537140046134,2618,Heinrich-Kraft-Park,,,,,,11,Fechenheim,510,11.77,11,Ost,18.0,60386
Bruderhofstraße 60388 Frankfurt,50.1506118,8.7561147,2863,Bruderhofstraße,,,,,,16,Bergen-Enkheim,680,16.83,16,Ost,18.0,60388
Miquelanlage 60320 Frankfurt,50.13383805,8.657639478423132,2629,Miquelanlage,,,,,,2,Westend-Nord,192,2.09,2,Dornbusch,12.0,60320
Albanusstraße 65929 Frankfurt,50.1016635,8.5459726,22,Albanusstraße,,,,,,6,Höchst,591,6.46,6C,Höchst,17.0,65929
Falkstraße 60487 Frankfurt,50.1256594,8.6439565,777,Falkstraße,,,,,,2,Bockenheim,361,2.12,2,Bockenheim,13.0,60487
Hugo-Eckener-Ring 60549 Frankfurt,50.0531547,8.5787668,2783,Hugo-Eckener-Ring,,,,,,5,Flughafen,329,5.34,5A,Sachsenhausen,19.0,60549
Rheinstraße 60325 Frankfurt,50.1125721,8.6593828,2003,Rheinstraße,ungerade,1,,15,,2,Westend-Süd,100,2.11,2,Bockenheim,13.0,60325
Auf der Kuhr 60435 Frankfurt,50.1691287,8.6934814,296,Auf der Kuhr,,,,,,10,Berkersheim,500,10.74,10,Nord,14.0,60435
Günther-Groenhoff-Straße 60487 Frankfurt,50.1299845,8.6469944,1016,Günther-Groenhoff-Straße,,,,,,2,Bockenheim,362,2.12,2,Bockenheim,13.0,60487
In den Zeuläckern 60389 Frankfurt,50.1398584,8.7227155,1294,In den Zeuläckern,,,,,,11,Seckbach,390,11.75,11,Ost,6.0,60389
Allerheiligentor 60311 Frankfurt,50.1131852,8.6932046,31,Allerheiligentor,ungerade,,,,,1,Innenstadt,70,1.01,1,Ost,1.0,60311
Oberer Kalbacher Weg 60437 Frankfurt,50.1834656,8.6648206,1832,Oberer Kalbacher Weg,,,,,,10,Bonames,491,10.7,10,Nord,14.0,60437
Auerhahnstraße 65933 Frankfurt,50.1008939,8.5882978,283,Auerhahnstraße,,,,,,6,Griesheim,552,6.41,6A,Gallus,16.0,65933
Gerhard-Domagk-Straße 60438 Frankfurt,50.1772157,8.625197,3571,Gerhard-Domagk-Straße,,,,,,12,Kalbach-Riedberg,651,12.79,12,Nord,14.0,60438
Norbert-Wollheim-Platz 60323 Frankfurt,50.12515835000001,8.668969096612951,3695,Norbert-Wollheim-Platz,,,,,,2,Westend-Nord,191,2.09,2,Dornbusch,3.0,60323
Welscher Weg 60598 Frankfurt,50.0745172,8.6724351,2478,Welscher Weg,ungerade,43,,,,5,Sachsenhausen-S.,326,5.34,5A,Sachsenhausen,10.0,60598
Kettelerallee 60385 Frankfurt,50.1237632,8.7170019,1404,Kettelerallee,,,,,,4,Bornheim,281,4.24,4,Ost,6.0,60385
Otto-Loewe-Straße 60486 Frankfurt,50.1227634,8.6424313,1883,Otto-Loewe-Straße,,,,,,2,Bockenheim,350,2.13,2,Bockenheim,13.0,60486
Schellgasse 60594 Frankfurt,50.1062109,8.6864595,2116,Schellgasse,,,,,,5,Sachsenhausen-N.,300,5.31,5A,Sachsenhausen,8.0,60594
Bockenheimer Landstraße 60306 Frankfurt,50.1156386,8.6698776,452,Bockenheimer Landstraße,gerade,2,,4,,2,Westend-Süd,110,2.1,2,Bockenheim,3.0,60306
Heinrich-Baldes-Straße 65936 Frankfurt,50.1145995,8.554697,3184,Heinrich-Baldes-Straße,,,,,,6,Sossenheim,631,6.53,6C,Höchst,17.0,65936
Nauheimer Straße 60486 Frankfurt,50.1179479,8.6432188,1769,Nauheimer Straße,,,,,,2,Bockenheim,341,2.13,2,Bockenheim,13.0,60486
Kleiststraße 60318 Frankfurt,50.1319982,8.6925482,1444,Kleiststraße,,,,,,3,Nordend-West,212,3.17,3,Ost,3.0,60318
Kapitän-Lehmann-Straße 60549 Frankfurt,50.0546417,8.5866139,1359,Kapitän-Lehmann-Straße,,,,,,5,Flughafen,327,5.34,5A,Sachsenhausen,19.0,60549
Christa-Maar-Straße 60488 Frankfurt,50.1476057,8.6074566,3632,Christa-Maar-Straße,,,,,,7,Praunheim,422,7.59,7,Bockenheim,14.0,60488
Walnußweg 60433 Frankfurt,50.1620524,8.6714543,3135,Walnußweg,,,,,,10,Frankfurter Berg,492,10.71,10,Nord,14.0,60433
Zur Charlottenburg 60437 Frankfurt,50.2015506,8.7111398,2667,Zur Charlottenburg,,,,,,13,Nieder-Erlenbach,640,13.8,13,Nord,14.0,60437
Schwarzer Weg 60326 Frankfurt,50.1368736,8.7570621,3278,Schwarzer Weg,,,,,,6,Griesheim,542,6.4,6A,Gallus,16.0,60326
Wilhelm-Roser-Weg 65929 Frankfurt,50.106925,8.5361539,2521,Wilhelm-Roser-Weg,,,,,,6,Unterliederbach,621,6.51,6C,Höchst,17.0,65929
Zum Stulen 60438 Frankfurt,50.1777762,8.6369773,3402,Zum Stulen,,,,,,12,Kalbach-Riedberg,651,12.79,12,Nord,14.0,60438
Nordpassage 60549 Frankfurt,50.0507302,8.5683065,3086,Nordpassage,,,,,,5,Flughafen,329,5.34,5A,Sachsenhausen,19.0,60549
Römerbrücke 60431 Frankfurt,50.1490834,8.6391362,3497,Römerbrücke,,,,,,9,Ginnheim,441,9.67,9,Nord,12.0,60431
Rotenbuschweg 60386 Frankfurt,50.1346543,8.7318813,3222,Rotenbuschweg,,,,,,11,Seckbach,390,11.75,11,Ost,18.0,60386
Willmannstraße 60386 Frankfurt,50.1250815,8.7686461,2527,Willmannstraße,,,,,,11,Fechenheim,510,11.77,11,Ost,18.0,60386
Taschnerstraße 60388 Frankfurt,50.1468757,8.7514137,2921,Taschnerstraße,,,,,,16,Bergen-Enkheim,680,16.83,16,Ost,18.0,60388
Sossenheimer Weg 65929 Frankfurt,50.1115374,8.5382638,2257,Sossenheimer Weg,ungerade,,,,,6,Unterliederbach,622,6.52,6C,Höchst,17.0,65929
Lessingstraße 60325 Frankfurt,50.114754,8.6616589,1572,Lessingstraße,,,,,,2,Westend-Süd,100,2.11,2,Bockenheim,13.0,60325
Aschaffenburger Straße 60599 Frankfurt,50.0963172,8.6933671,277,Aschaffenburger Straße,,,,,,5,Sachsenhausen-S.,332,5.29,5A,Sachsenhausen,8.0,60599
Am Spritzenhaus 60488 Frankfurt,50.1323816,8.6227332,185,Am Spritzenhaus,,,,,,7,Hausen,410,7.58,7,Bockenheim,11.0,60488
Am Hirtenacker 60488 Frankfurt,50.1388355,8.6223275,2609,Am Hirtenacker,,,,,,7,Hausen,410,7.58,7,Bockenheim,11.0,60488
Michaelstraße 65936 Frankfurt,50.1206346,8.5649753,1723,Michaelstraße,,,,,,6,Sossenheim,631,6.53,6C,Höchst,17.0,65936
Okrifteler Straße 65931 Frankfurt,50.0774387,8.5171422,1863,Okrifteler Straße,,,,,,6,Sindlingen,601,6.47,6B,Höchst,17.0,65931
Hermann-Küster-Straße 65931 Frankfurt,50.0889673,8.5055318,1150,Hermann-Küster-Straße,,,,,,6,Sindlingen,602,6.48,6B,Höchst,17.0,65931
Tacitusstraße 60439 Frankfurt,50.1589098,8.6370537,2322,Tacitusstraße,,,,,,8,Heddernheim,432,8.62,8,Nord,14.0,60439
Reversbrunnenweg 60599 Frankfurt,50.0953158,8.7047755,2000,Reversbrunnenweg,,,,,,5,Sachsenhausen-S.,332,5.29,5A,Sachsenhausen,8.0,60599
Steinritzstraße 60437 Frankfurt,50.1873538,8.6916792,2731,Steinritzstraße,,,,,,14,Harheim,660,14.81,14,Nord,14.0,60437
Casparistraße 60435 Frankfurt,50.1432341,8.6850853,595,Casparistraße,,,,,,10,Eckenheim,461,10.72,10,Dornbusch,12.0,60435
Gabelsbergerstraße 60389 Frankfurt,50.1275295,8.7009774,892,Gabelsbergerstraße,,,,,,3,Nordend-Ost,222,3.18,3,Ost,6.0,60389
Rathausgasse 60389 Frankfurt,50.1451963,8.7268584,1964,Rathausgasse,,,,,,11,Seckbach,390,11.75,11,Ost,6.0,60389
Gabriel-Riesser-Weg 60487 Frankfurt,50.1210684,8.65248,3689,Gabriel-Riesser-Weg,,,,,,2,Bockenheim,361,2.12,2,Bockenheim,13.0,60487
Friedensallee (Neu-Isenburg) 63263 Frankfurt,50.0565365,8.6758702,2789,Friedensallee (Neu-Isenburg),,,,,,5,Sachsenhausen-S.,323,5.3,5A,Sachsenhausen,,63263
Gundelandstraße 60435 Frankfurt,50.1559196,8.69495,3355,Gundelandstraße,,,,,,10,Preungesheim,470,10.73,10,Dornbusch,12.0,60435
Ludwig-Erhard-Anlage 60325 Frankfurt,50.11378915,8.651927324909352,2971,Ludwig-Erhard-Anlage,gerade,,,,,2,Westend-Süd,170,2.11,2,Bockenheim,13.0,60325
Jakobsbrunnenstraße 60386 Frankfurt,50.1266774,8.7663817,1318,Jakobsbrunnenstraße,,,,,,11,Fechenheim,510,11.77,11,Ost,18.0,60386
Hausener Brückweg 60488 Frankfurt,50.1323956,8.6256902,1094,Hausener Brückweg,,,,,,7,Hausen,410,7.58,7,Bockenheim,11.0,60488
Anna-Lindh-Allee 60437 Frankfurt,50.206913,8.6592616,3544,Anna-Lindh-Allee,,,,,,15,Nieder-Eschbach,670,15.82,15,Nord,14.0,60437
Grotefendstraße 60435 Frankfurt,50.1455873,8.6865844,1002,Grotefendstraße,,,,,,10,Eckenheim,461,10.72,10,Dornbusch,12.0,60435
Kleine Brückenstraße 60594 Frankfurt,50.1045227,8.6885723,1431,Kleine Brückenstraße,,,,,,5,Sachsenhausen-N.,300,5.31,5A,Sachsenhausen,8.0,60594
Eibenweg 60435 Frankfurt,50.1660677,8.6884768,3580,Eibenweg,,,,,,10,Berkersheim,500,10.74,10,Nord,14.0,60435
Metzlerstraße 60594 Frankfurt,50.1048018,8.6798264,1721,Metzlerstraße,,,,,,5,Sachsenhausen-N.,324,5.32,5A,Sachsenhausen,8.0,60594
Herrenwäldchen 60386 Frankfurt,50.1337517,8.720807,3141,Herrenwäldchen,,,,,,4,Bornheim,290,4.22,4,Ost,6.0,60386
Gellertstraße 60389 Frankfurt,50.1307909,8.6964852,916,Gellertstraße,,,,,,3,Nordend-Ost,222,3.18,3,Ost,6.0,60389
Emil-Siering-Park 65929 Frankfurt,50.11235785,8.544739214714284,3747,Emil-Siering-Park,,,,,,6,Unterliederbach,622,6.52,6C,Höchst,17.0,65929
Assmannshäuser Weg 60529 Frankfurt,50.0834819,8.5697674,280,Assmannshäuser Weg,,,,,,6,Schwanheim,531,6.38,6A,Sachsenhausen,10.0,60529
Deutschordenstraße 60528 Frankfurt,50.0935306,8.6526644,633,Deutschordenstraße,,,,,,5,Niederrad,371,5.35,5B,Sachsenhausen,10.0,60528
Allesinastraße 65931 Frankfurt,50.0783735,8.5159303,32,Allesinastraße,,,,,,6,Sindlingen,601,6.47,6B,Höchst,17.0,65931
Schweinfurter Weg 60599 Frankfurt,50.095,8.7000799,2203,Schweinfurter Weg,,,,,,5,Sachsenhausen-S.,332,5.29,5A,Sachsenhausen,8.0,60599
Eppenhainer Straße 60326 Frankfurt,50.1041765,8.6255365,738,Eppenhainer Straße,ungerade,1,,15,,1,Gallus,165,1.08,1,Gallus,4.0,60326
Milseburgstraße 60388 Frankfurt,50.1446315,8.7589877,2899,Milseburgstraße,,,,,,16,Bergen-Enkheim,680,16.83,16,Ost,18.0,60388
Flaischlenstraße 60529 Frankfurt,50.0833233,8.5811547,805,Flaischlenstraße,,,,,,6,Schwanheim,531,6.38,6A,Sachsenhausen,10.0,60529
Kuhwaldstraße 60486 Frankfurt,50.1155997,8.6406556,1514,Kuhwaldstraße,,,,,,2,Bockenheim,342,2.14,2,Bockenheim,13.0,60486
Welschgrabenstraße 65931 Frankfurt,50.0952972,8.4914236,2479,Welschgrabenstraße,,,,,,6,Zeilsheim,611,6.49,6B,Höchst,17.0,65931
Am Ebelfeld 60488 Frankfurt,50.1447672,8.6140381,99,Am Ebelfeld,,,,,,7,Praunheim,422,7.59,7,Bockenheim,14.0,60488
Eschenheimer Anlage 60316 Frankfurt,50.1184913,8.6888797,755,Eschenheimer Anlage,ungerade,1,,7,,3,Nordend-West,120,3.21,3,Ost,3.0,60316
Neckarstraße 60329 Frankfurt,50.1095161,8.6697269,1771,Neckarstraße,,,,,,1,Bahnhofsviertel,90,1.03,1,Gallus,4.0,60329
Pfaffenwiese 65931 Frankfurt,50.0971632,8.5047701,1914,Pfaffenwiese,ungerade,1,,103,,6,Zeilsheim,612,6.5,6B,Höchst,17.0,65931
Grempstraße 60487 Frankfurt,50.1248057,8.6391847,982,Grempstraße,ungerade,7,,33,,2,Bockenheim,350,2.13,2,Bockenheim,13.0,60487
Weißfrauenstraße 60311 Frankfurt,50.1096581,8.6774226,2474,Weißfrauenstraße,ungerade,,,,,1,Altstadt,10,1.01,1,Ost,1.0,60311
Kaisergässchen 60529 Frankfurt,50.0851264,8.5799312,3742,Kaisergässchen,,,,,,6,Schwanheim,531,6.38,6A,Sachsenhausen,10.0,60529
Heinrich-Berbalk-Straße 60437 Frankfurt,50.1907836,8.6688884,2787,Heinrich-Berbalk-Straße,,,,,,15,Nieder-Eschbach,670,15.82,15,Nord,14.0,60437
Hildegard-Schaeder-Straße 60599 Frankfurt,50.095503,8.7236935,3262,Hildegard-Schaeder-Straße,,,,,,5,Oberrad,380,5.28,5A,Sachsenhausen,8.0,60599
Annastraße 60322 Frankfurt,50.1270283,8.6818347,260,Annastraße,,,,,,3,Nordend-West,203,3.16,3,Dornbusch,3.0,60322
Wilhelm-Beer-Weg 60599 Frankfurt,50.0894845,8.7072661,2515,Wilhelm-Beer-Weg,,,,,,5,Sachsenhausen-S.,332,5.29,5A,Sachsenhausen,8.0,60599
Alt-Preungesheim 60435 Frankfurt,50.1549512,8.6878096,69,Alt-Preungesheim,,,,,,10,Preungesheim,470,10.73,10,Dornbusch,12.0,60435
Zeppelinallee 60487 Frankfurt,50.1289646,8.6452657,2560,Zeppelinallee,ungerade,45,,113,,2,Bockenheim,362,2.12,2,Bockenheim,13.0,60487
Kranengasse 65929 Frankfurt,50.1008352,8.5514823,1489,Kranengasse,,,,,,6,Höchst,580,6.45,6C,Höchst,17.0,65929
Adlhochplatz 60594 Frankfurt,50.10172725,8.686251696450514,3260,Adlhochplatz,,,,,,5,Sachsenhausen-N.,324,5.32,5A,Sachsenhausen,8.0,60594
Fleckenbühlstraße 60437 Frankfurt,50.1818033,8.6599959,808,Fleckenbühlstraße,,,,,,10,Bonames,491,10.7,10,Nord,14.0,60437
Höchster Markt 65929 Frankfurt,50.099609,8.5462172,1186,Höchster Markt,,,,,,6,Höchst,591,6.46,6C,Höchst,17.0,65929
Bleidenstraße 60311 Frankfurt,50.1127902,8.6810518,447,Bleidenstraße,,,,,,1,Altstadt,10,1.01,1,Ost,1.0,60311
Rendeler Straße 60385 Frankfurt,50.1277878,8.7096283,1992,Rendeler Straße,ungerade,,,,,4,Bornheim,272,4.22,4,Ost,6.0,60385
Bachmannstraße 60488 Frankfurt,50.1314746,8.6257744,321,Bachmannstraße,,,,,,7,Hausen,410,7.58,7,Bockenheim,11.0,60488
Freihofstraße 60385 Frankfurt,50.1297487,8.7135196,856,Freihofstraße,,,,,,4,Bornheim,272,4.22,4,Ost,6.0,60385
Am Eiswerk 60388 Frankfurt,50.1502999,8.7614706,2998,Am Eiswerk,,,,,,16,Bergen-Enkheim,680,16.83,16,Ost,18.0,60388
Am Köstrich 60489 Frankfurt,50.1264689,8.6127183,136,Am Köstrich,,,,,,7,Rödelheim,401,7.55,7,Bockenheim,11.0,60489
Haigerer Straße 65936 Frankfurt,50.1239085,8.5772164,1060,Haigerer Straße,,,,,,6,Sossenheim,632,6.54,6C,Höchst,17.0,65936
Am Waldgraben 60529 Frankfurt,50.0785865,8.6055234,2966,Am Waldgraben,,,,,,6,Schwanheim,532,6.37,6A,Sachsenhausen,10.0,60529
Zur Kalbacher Höhe 60438 Frankfurt,50.1754632,8.6420994,3290,Zur Kalbacher Höhe,,,,,,12,Kalbach-Riedberg,651,12.79,12,Nord,14.0,60438
Deuil-La-Barre-Straße 60437 Frankfurt,50.1993809,8.6727313,2764,Deuil-La-Barre-Straße,,,,,,15,Nieder-Eschbach,670,15.82,15,Nord,14.0,60437
Stichelstraße 60489 Frankfurt,50.12734,8.6167467,2302,Stichelstraße,,,,,,7,Rödelheim,401,7.55,7,Bockenheim,11.0,60489
Leonhard-Heißwolf-Straße 65936 Frankfurt,50.1280935,8.5837653,3199,Leonhard-Heißwolf-Straße,,,,,,6,Sossenheim,632,6.54,6C,Höchst,17.0,65936
Triftstraße 60528 Frankfurt,50.0837347,8.6448173,2375,Triftstraße,ungerade,,,,,5,Niederrad,372,5.36,5B,Sachsenhausen,10.0,60528
Ginnheimer Kirchplatz 60431 Frankfurt,50.1443224,8.64896645204356,3264,Ginnheimer Kirchplatz,,,,,,9,Ginnheim,441,9.67,9,Nord,12.0,60431
Bäckerweg 60316 Frankfurt,50.1230188,8.6923889,327,Bäckerweg,,,,,,3,Nordend-Ost,130,3.2,3,Ost,3.0,60316
Röderbergweg 60316 Frankfurt,50.1136737,8.7024657,2029,Röderbergweg,ungerade,29,,,,4,Ostend,251,4.25,4,Ost,5.0,60316
Am Honigberg 60435 Frankfurt,50.1715311,8.6971445,128,Am Honigberg,,,,,,10,Berkersheim,500,10.74,10,Nord,14.0,60435
Platenstraße 60431 Frankfurt,50.1399691,8.6540862,1933,Platenstraße,ungerade,73,,79z,z,9,Dornbusch,442,9.68,9,Dornbusch,12.0,60431
Nußbaumplatz 60385 Frankfurt,50.1343679,8.7135351,1827,Nußbaumplatz,,,,,,4,Bornheim,272,4.22,4,Ost,6.0,60385
Karl-Bieber-Höhe 60437 Frankfurt,50.2004598,8.6801702,2743,Karl-Bieber-Höhe,,,,,,15,Nieder-Eschbach,670,15.82,15,Nord,14.0,60437
Rauenthaler Weg 60529 Frankfurt,50.0840933,8.5691721,1968,Rauenthaler Weg,,,,,,6,Schwanheim,531,6.38,6A,Sachsenhausen,10.0,60529
Am Traubengarten 60435 Frankfurt,50.1744688,8.6962748,196,Am Traubengarten,,,,,,10,Berkersheim,500,10.74,10,Nord,14.0,60435
Kätcheslachpark 60437 Frankfurt,50.18081525,8.632037377411104,3471,Kätcheslachpark,,,,,,12,Kalbach-Riedberg,650,12.79,12,Nord,14.0,60437
Carl-Benz-Straße 60314 Frankfurt,50.1223213,8.747434,1363,Carl-Benz-Straße,ungerade,1,,7,,11,Fechenheim,510,11.77,11,Ost,5.0,60314
Airportring 60549 Frankfurt,50.0403098,8.5327308,3016,Airportring,,,,,,5,Flughafen,329,5.34,5A,Sachsenhausen,19.0,60549
Am Hennsee 60386 Frankfurt,50.123112,8.7675192,121,Am Hennsee,ungerade,,,,,11,Fechenheim,520,11.78,11,Ost,18.0,60386
Landgraf-Philipp-Straße 60431 Frankfurt,50.1510951,8.6596819,1536,Landgraf-Philipp-Straße,,,,,,9,Eschersheim,452,9.66,9,Dornbusch,12.0,60431
An den Riederhöfen 60314 Frankfurt,50.116923,8.7283403,221,An den Riederhöfen,,,,,,4,Ostend,261,4.27,4,Ost,5.0,60314
Siegfried-Gößling-Weg 60389 Frankfurt,50.1380133,8.7166979,3704,Siegfried-Gößling-Weg,,,,,,11,Seckbach,390,11.75,11,Ost,6.0,60389
Rangenbergstraße 60388 Frankfurt,50.1499677,8.7598387,2905,Rangenbergstraße,,,,,,16,Bergen-Enkheim,680,16.83,16,Ost,18.0,60388
Rosenbergerstraße 60313 Frankfurt,50.1174521,8.6859276,2042,Rosenbergerstraße,,,,,,1,Innenstadt,60,1.02,1,Ost,1.0,60313
Ederstraße 60486 Frankfurt,50.1200297,8.6388723,689,Ederstraße,,,,,,2,Bockenheim,350,2.13,2,Bockenheim,13.0,60486
Günthersburgallee 60389 Frankfurt,50.1279971,8.69942797733454,1017,Günthersburgallee,ungerade,67,,93,,3,Nordend-Ost,222,3.18,3,Ost,6.0,60389
Am Martinszehnten 60437 Frankfurt,50.190727,8.6532529,2945,Am Martinszehnten,,,,,,12,Kalbach-Riedberg,650,12.79,12,Nord,14.0,60437
Schlettweinstraße 60386 Frankfurt,50.1281075,8.7385122,2134,Schlettweinstraße,,,,,,11,Riederwald,262,11.76,11,Ost,18.0,60386
Karl-von-Drais-Straße 60435 Frankfurt,50.1476362,8.6808332,1378,Karl-von-Drais-Straße,,,,,,10,Eckenheim,461,10.72,10,Dornbusch,12.0,60435
Am Graben 60529 Frankfurt,50.0853682,8.5822013,115,Am Graben,,,,,,6,Schwanheim,531,6.38,6A,Sachsenhausen,10.0,60529
Erlenbacher Straße 60389 Frankfurt,50.1280331,8.7005297,746,Erlenbacher Straße,,,,,,3,Nordend-Ost,222,3.18,3,Ost,6.0,60389
Kehreinstraße 65934 Frankfurt,50.0988857,8.5706068,1394,Kehreinstraße,,,,,,6,Nied,561,6.42,6A,Höchst,16.0,65934
Westhafenplatz 60327 Frankfurt,50.1011059,8.664169,3424,Westhafenplatz,,,,,,1,Gutleutviertel,151,1.04,1,Gallus,4.0,60327
Am Ulmenrück 60433 Frankfurt,50.1675808,8.6855828,199,Am Ulmenrück,,,,,,10,Frankfurter Berg,492,10.71,10,Nord,14.0,60433
Marbachweg 60435 Frankfurt,50.1439799,8.6922128,1659,Marbachweg,ungerade,9,,107,,10,Preungesheim,470,10.73,10,Dornbusch,12.0,60435
Justinuskirchstraße 65929 Frankfurt,50.1011376,8.5449911,1344,Justinuskirchstraße,,,,,,6,Höchst,591,6.46,6C,Höchst,17.0,65929
Egelsbacher Straße 60528 Frankfurt,50.0858783,8.6480372,693,Egelsbacher Straße,,,,,,5,Niederrad,371,5.35,5B,Sachsenhausen,10.0,60528
Pfingstbornstraße 65931 Frankfurt,50.083465,8.5133421,1919,Pfingstbornstraße,,,,,,6,Sindlingen,601,6.47,6B,Höchst,17.0,65931
Otzbergstraße 60528 Frankfurt,50.0870894,8.640096,1885,Otzbergstraße,,,,,,5,Niederrad,371,5.35,5B,Sachsenhausen,10.0,60528
Inselsbergstraße 65929 Frankfurt,50.112946,8.5344584,1307,Inselsbergstraße,,,,,,6,Unterliederbach,621,6.51,6C,Höchst,17.0,65929
Renettenstraße 60435 Frankfurt,50.1562241,8.6998966,3382,Renettenstraße,,,,,,10,Preungesheim,470,10.73,10,Dornbusch,12.0,60435
Am Kapellenberg 65936 Frankfurt,50.1177294,8.5621063,132,Am Kapellenberg,,,,,,6,Sossenheim,631,6.53,6C,Höchst,17.0,65936
Am Himmerich 60438 Frankfurt,50.1794526,8.6283177,3598,Am Himmerich,,,,,,12,Kalbach-Riedberg,651,12.79,12,Nord,14.0,60438
Albert-Blank-Straße 65931 Frankfurt,50.0852316,8.5085414,23,Albert-Blank-Straße,,,,,,6,Sindlingen,602,6.48,6B,Höchst,17.0,65931
Am Gemeindegarten 65933 Frankfurt,50.0939391,8.6084568,113,Am Gemeindegarten,,,,,,6,Griesheim,541,6.39,6A,Gallus,16.0,65933
Sieringstraße 65929 Frankfurt,50.109586,8.540966,2229,Sieringstraße,,,,,,6,Unterliederbach,622,6.52,6C,Höchst,17.0,65929
An der Festeburg 60389 Frankfurt,50.1441528,8.705733,232,An der Festeburg,,,,,,11,Seckbach,390,11.75,11,Ost,6.0,60389
Arnstädter Weg 65931 Frankfurt,50.0922825,8.502009,275,Arnstädter Weg,ungerade,1,,9,,6,Zeilsheim,604,6.49,6B,Höchst,17.0,65931
Frauenhofstraße 60528 Frankfurt,50.0874125,8.6489345,851,Frauenhofstraße,,,,,,5,Niederrad,371,5.35,5B,Sachsenhausen,10.0,60528
Walter-Kolb-Straße 60594 Frankfurt,50.1050459,8.6841484,2438,Walter-Kolb-Straße,ungerade,1,,13c,c,5,Sachsenhausen-N.,300,5.31,5A,Sachsenhausen,8.0,60594
Sondershausenstraße 60326 Frankfurt,50.0972419,8.622749,2249,Sondershausenstraße,,,,,,1,Gallus,154,1.05,1,Gallus,16.0,60326
Hofstraße 60311 Frankfurt,50.1079075,8.6751594,1202,Hofstraße,,,,,,1,Innenstadt,40,1.03,1,Ost,1.0,60311
Philipp-Puth-Straße 60388 Frankfurt,50.1418019,8.7577685,2904,Philipp-Puth-Straße,,,,,,16,Bergen-Enkheim,680,16.83,16,Ost,18.0,60388
Bessie-Coleman-Straße 60549 Frankfurt,50.0565694,8.5957729,3549,Bessie-Coleman-Straße,,,,,,5,Flughafen,327,5.34,5A,Sachsenhausen,19.0,60549
Dieburger Straße 60386 Frankfurt,50.1156007,8.769541,636,Dieburger Straße,,,,,,11,Fechenheim,520,11.78,11,Ost,18.0,60386
Peter-Behrens-Straße 60314 Frankfurt,50.1152431,8.7376473,3348,Peter-Behrens-Straße,,,,,,4,Ostend,261,4.27,4,Ost,5.0,60314
Nikolausstraße 65936 Frankfurt,50.1196878,8.5653238,1817,Nikolausstraße,,,,,,6,Sossenheim,631,6.53,6C,Höchst,17.0,65936
Gebeschusstraße 65929 Frankfurt,50.1047334,8.5420227,904,Gebeschusstraße,ungerade,1,,49,,6,Höchst,570,6.44,6C,Höchst,17.0,65929
Bodenstedtstraße 60594 Frankfurt,50.1033038,8.6863489,458,Bodenstedtstraße,,,,,,5,Sachsenhausen-N.,324,5.32,5A,Sachsenhausen,8.0,60594
Germaniastraße 60389 Frankfurt,50.12634,8.6999977,930,Germaniastraße,ungerade,57,,89,,3,Nordend-Ost,222,3.18,3,Ost,6.0,60389
Deutschherrnbrücke 60594 Frankfurt,50.1053276,8.7041905,630,Deutschherrnbrücke,,,,,,5,Sachsenhausen-N.,331,5.31,5A,Sachsenhausen,8.0,60594
Eckernförder Straße 60435 Frankfurt,50.1429332,8.6784158,686,Eckernförder Straße,,,,,,10,Eckenheim,461,10.72,10,Dornbusch,12.0,60435
Am Hollgraben 60388 Frankfurt,50.1584926,8.7674171,3053,Am Hollgraben,,,,,,16,Bergen-Enkheim,680,16.83,16,Ost,18.0,60388
Maybachstraße 60433 Frankfurt,50.1598955,8.6552262,1700,Maybachstraße,,,,,,9,Eschersheim,451,9.65,9,Dornbusch,12.0,60433
Triebstraße 60388 Frankfurt,50.1488871,8.7536848,2922,Triebstraße,,,,,,16,Bergen-Enkheim,680,16.83,16,Ost,18.0,60388
Homburger Landstraße 60433 Frankfurt,50.1686605,8.6773157,1219,Homburger Landstraße,ungerade,279,,375,,10,Preungesheim,470,10.73,10,Dornbusch,14.0,60433
Schlesierstraße 60388 Frankfurt,50.1469329,8.7582743,2913,Schlesierstraße,,,,,,16,Bergen-Enkheim,680,16.83,16,Ost,18.0,60388
Augustenburgstraße 60488 Frankfurt,50.152455,8.6237301,306,Augustenburgstraße,,,,,,7,Praunheim,425,7.6,7,Bockenheim,14.0,60488
Hans-Eick-Weg 60487 Frankfurt,50.1247613,8.6405098,3064,Hans-Eick-Weg,,,,,,2,Bockenheim,361,2.12,2,Bockenheim,13.0,60487
Südallee 65929 Frankfurt,50.0807862,8.546549,3593,Südallee,,,,,,6,Schwanheim,531,6.38,6A,Sachsenhausen,10.0,65929
In der Sauren Wiese 60389 Frankfurt,50.1445434,8.7363606,3155,In der Sauren Wiese,,,,,,11,Seckbach,390,11.75,11,Ost,6.0,60389
Dielmannstraße 60599 Frankfurt,50.099117,8.7003869,637,Dielmannstraße,,,,,,5,Sachsenhausen-S.,332,5.29,5A,Sachsenhausen,8.0,60599
Arthur-von-Weinberg-Straße 60438 Frankfurt,50.1746484,8.62579,3607,Arthur-von-Weinberg-Straße,,,,,,12,Kalbach-Riedberg,651,12.79,12,Nord,14.0,60438
Tiroler Park 60596 Frankfurt,50.0938622,8.677180807472526,3365,Tiroler Park,,,,,,5,Sachsenhausen-N.,322,5.33,5A,Sachsenhausen,8.0,60596
Emmy-Klieneberger-Nobel-Straße 60438 Frankfurt,50.1710474,8.6288229,3751,Emmy-Klieneberger-Nobel-Straße,,,,,,8,Niederursel,484,8.63,8,Nord,14.0,60438
Kaulbachstraße 60594 Frankfurt,50.099505,8.6826865,1392,Kaulbachstraße,ungerade,1,,,,5,Sachsenhausen-N.,324,5.32,5A,Sachsenhausen,8.0,60594
Philipp-Reis-Straße 60486 Frankfurt,50.1143051,8.6357766,1929,Philipp-Reis-Straße,,,,,,2,Bockenheim,163,2.15,2,Bockenheim,13.0,60486
Mainzer Landstraße 65933 Frankfurt,50.1003144,8.6011516,1650,Mainzer Landstraße,ungerade,529,,545,,6,Griesheim,542,6.4,6A,Gallus,16.0,65933
Thurn-und-Taxis-Platz 60313 Frankfurt,50.11520435,8.680384024055499,3554,Thurn-und-Taxis-Platz,,,,,,1,Innenstadt,60,1.02,1,Ost,1.0,60313
Rudolf-Hilferding-Straße 60439 Frankfurt,50.1561928,8.6216144,2062,Rudolf-Hilferding-Straße,,,,,,8,Niederursel,482,8.64,8,Nord,14.0,60439
Rodheimer Straße 60385 Frankfurt,50.1281413,8.7063208,2024,Rodheimer Straße,,,,,,4,Bornheim,271,4.23,4,Ost,6.0,60385
Wichernstraße 60389 Frankfurt,50.1433985,8.7279089,2498,Wichernstraße,,,,,,11,Seckbach,390,11.75,11,Ost,6.0,60389
Intzestraße 60314 Frankfurt,50.1166859,8.7275657,1309,Intzestraße,,,,,,4,Ostend,261,4.27,4,Ost,5.0,60314
Hühnerweg 60599 Frankfurt,50.100569,8.6923894,1230,Hühnerweg,,,,,,5,Sachsenhausen-S.,332,5.29,5A,Sachsenhausen,8.0,60599
Farbenstraße 65931 Frankfurt,50.0799264,8.5166666,780,Farbenstraße,,,,,,6,Sindlingen,601,6.47,6B,Höchst,17.0,65931
Justinusplatz 65929 Frankfurt,50.0990018,8.548301,1345,Justinusplatz,,,,,,6,Höchst,580,6.45,6C,Höchst,17.0,65929
Am Ziehgraben 60488 Frankfurt,50.1382508,8.6216019,214,Am Ziehgraben,,,,,,7,Hausen,410,7.58,7,Bockenheim,11.0,60488
Philosophenweg 65929 Frankfurt,50.1070205,8.5375322,1931,Philosophenweg,,,,,,6,Unterliederbach,621,6.51,6C,Höchst,17.0,65929
Schwabstraße 60435 Frankfurt,50.1439914,8.6826984,2183,Schwabstraße,,,,,,10,Eckenheim,461,10.72,10,Dornbusch,12.0,60435
Starenweg 65929 Frankfurt,50.1037031,8.5292635,2274,Starenweg,,,,,,6,Unterliederbach,621,6.51,6C,Höchst,17.0,65929
Sachsenhäuser Landwehrweg 60598 Frankfurt,50.0875287,8.6837476,2082,Sachsenhäuser Landwehrweg,ungerade,195,,311,,5,Sachsenhausen-S.,323,5.3,5A,Sachsenhausen,8.0,60598
August-Belz-Anlage 60528 Frankfurt,50.082787,8.640349933688606,3360,August-Belz-Anlage,,,,,,5,Niederrad,372,5.36,5B,Sachsenhausen,10.0,60528
Am Villaberg 60388 Frankfurt,50.1534271,8.7534802,2847,Am Villaberg,,,,,,16,Bergen-Enkheim,680,16.83,16,Ost,18.0,60388
Denzerstraße 65934 Frankfurt,50.1022886,8.5659584,626,Denzerstraße,,,,,,6,Nied,561,6.42,6A,Höchst,16.0,65934
Hospitalstraße 65929 Frankfurt,50.1057414,8.5441756,1226,Hospitalstraße,,,,,,6,Höchst,570,6.44,6C,Höchst,17.0,65929
Herchenhainer Weg 60435 Frankfurt,50.1546668,8.6905939,2799,Herchenhainer Weg,,,,,,10,Preungesheim,470,10.73,10,Dornbusch,12.0,60435
Neue Mainzer Straße 60313 Frankfurt,50.1141582,8.6722704,1778,Neue Mainzer Straße,ungerade,85,,,,1,Innenstadt,50,1.02,1,Ost,1.0,60313
Duisbergstraße 60320 Frankfurt,50.1329592,8.6719735,676,Duisbergstraße,,,,,,2,Westend-Nord,192,2.09,2,Dornbusch,12.0,60320
Europagarten 60486 Frankfurt,50.10794835,8.631684988038987,3596,Europagarten,,,,,,1,Gallus,162,1.07,1,Gallus,13.0,60486
Alt-Sindlingen 65931 Frankfurt,50.0809265,8.5191074,73,Alt-Sindlingen,,,,,,6,Sindlingen,601,6.47,6B,Höchst,17.0,65931
Im Weidensee 65929 Frankfurt,50.100927,8.5316906,3308,Im Weidensee,,,,,,6,Unterliederbach,623,6.51,6C,Höchst,17.0,65929
Rüsselsheimer Straße 60326 Frankfurt,50.1014505,8.6205554,2068,Rüsselsheimer Straße,,,,,,1,Gallus,164,1.08,1,Gallus,16.0,60326
Altebergsweg 60599 Frankfurt,50.0934015,8.7130553,40,Altebergsweg,ungerade,31,,,,5,Sachsenhausen-S.,332,5.29,5A,Sachsenhausen,8.0,60599
Heinrich-Hardt-Straße 65933 Frankfurt,50.1031913,8.6002274,1123,Heinrich-Hardt-Straße,ungerade,29,,47,,6,Griesheim,542,6.4,6A,Gallus,16.0,65933
Klimsch-Anlage 60431 Frankfurt,50.1444886,8.6661601,3337,Klimsch-Anlage,,,,,,9,Dornbusch,442,9.68,9,Dornbusch,12.0,60431
Schenckstraße 60489 Frankfurt,50.1282378,8.6166996,2118,Schenckstraße,,,,,,7,Rödelheim,401,7.55,7,Bockenheim,11.0,60489
Neue Rothofstraße 60313 Frankfurt,50.1138859,8.6731339,1781,Neue Rothofstraße,,,,,,1,Innenstadt,50,1.02,1,Ost,1.0,60313
Darmstädter Landstraße 63263 Frankfurt,50.0590258,8.6950986,620,Darmstädter Landstraße,ungerade,741,,,,5,Sachsenhausen-S.,332,5.29,5A,Sachsenhausen,,63263
Brückhofstraße 60311 Frankfurt,50.1103175,8.6883509,514,Brückhofstraße,,,,,,1,Innenstadt,80,1.01,1,Ost,1.0,60311
Friedensbrücke 60329 Frankfurt,50.1010681,8.666701500984452,864,Friedensbrücke,,,,,,1,Gutleutviertel,151,1.04,1,Gallus,4.0,60329
Brahmsstraße 60318 Frankfurt,50.1305338,8.6878478,483,Brahmsstraße,,,,,,3,Nordend-West,212,3.17,3,Ost,3.0,60318
Am Schießrain 60389 Frankfurt,50.1443444,8.7282552,177,Am Schießrain,,,,,,11,Seckbach,390,11.75,11,Ost,6.0,60389
Nobelring 60598 Frankfurt,50.0802156,8.6808798,1820,Nobelring,,,,,,5,Sachsenhausen-S.,323,5.3,5A,Sachsenhausen,8.0,60598
Bernhard-Grzimek-Allee 60316 Frankfurt,50.1144744,8.7003558,3548,Bernhard-Grzimek-Allee,ungerade,,,,,4,Ostend,251,4.25,4,Ost,5.0,60316
Am Zedernholz 60437 Frankfurt,50.1855833,8.6525048,2678,Am Zedernholz,,,,,,12,Kalbach-Riedberg,650,12.79,12,Nord,14.0,60437
Kruggasse 60311 Frankfurt,50.1114888,8.6840112,1509,Kruggasse,,,,,,1,Altstadt,10,1.01,1,Ost,1.0,60311
Europa-Allee 60486 Frankfurt,50.1083065,8.6372042,3311,Europa-Allee,ungerade,65,,67,,1,Gallus,162,1.07,1,Gallus,4.0,60486
Im Hermeshain 60388 Frankfurt,50.1515039,8.7572931,2885,Im Hermeshain,,,,,,16,Bergen-Enkheim,680,16.83,16,Ost,18.0,60388
Leonhardsgasse 60389 Frankfurt,50.1449592,8.7289046,1566,Leonhardsgasse,,,,,,11,Seckbach,390,11.75,11,Ost,6.0,60389
Friedrich-Ebert-Anlage 60325 Frankfurt,50.110307,8.6590225,867,Friedrich-Ebert-Anlage,gerade,,,,,2,Westend-Süd,170,2.11,2,Bockenheim,13.0,60325
Niersteiner Straße 60598 Frankfurt,50.0920812,8.6820328,1816,Niersteiner Straße,,,,,,5,Sachsenhausen-S.,323,5.3,5A,Sachsenhausen,8.0,60598
Am Rosengarten 65934 Frankfurt,50.0987985,8.5728579,169,Am Rosengarten,,,,,,6,Nied,561,6.42,6A,Höchst,16.0,65934
Ferdinand-Happ-Straße 60314 Frankfurt,50.1140534,8.7159248,3345,Ferdinand-Happ-Straße,,,,,,4,Ostend,261,4.27,4,Ost,5.0,60314
Leberecht-Migge-Anlage 60438 Frankfurt,50.1782914,8.6221434,3665,Leberecht-Migge-Anlage,,,,,,12,Kalbach-Riedberg,651,12.79,12,Nord,14.0,60438
Frankensteiner Straße 60594 Frankfurt,50.1060664,8.6907385,840,Frankensteiner Straße,,,,,,5,Sachsenhausen-N.,300,5.31,5A,Sachsenhausen,8.0,60594
Gerlachstraße 65929 Frankfurt,50.1047033,8.5453661,928,Gerlachstraße,,,,,,6,Höchst,570,6.44,6C,Höchst,17.0,65929
Dietesheimer Straße 60386 Frankfurt,50.1166579,8.7731243,642,Dietesheimer Straße,,,,,,11,Fechenheim,520,11.78,11,Ost,18.0,60386
Auf dem Mühlberg 60599 Frankfurt,50.0991686,8.7031925,290,Auf dem Mühlberg,,,,,,5,Sachsenhausen-S.,332,5.29,5A,Sachsenhausen,8.0,60599
Am Niddatal 60488 Frankfurt,50.1379947,8.6192673,2606,Am Niddatal,,,,,,7,Hausen,410,7.58,7,Bockenheim,11.0,60488
Am Wäldchen 65929 Frankfurt,50.1129926,8.5493509,3298,Am Wäldchen,,,,,,6,Höchst,570,6.44,6C,Höchst,17.0,65929
Brönnerstraße 60313 Frankfurt,50.1157428,8.6832453,505,Brönnerstraße,,,,,,1,Innenstadt,60,1.02,1,Ost,1.0,60313
Schwedenpfad 65934 Frankfurt,50.1020141,8.5625341,2200,Schwedenpfad,,,,,,6,Nied,561,6.42,6A,Höchst,17.0,65934
Friedrich-Ebert-Anlage 60308 Frankfurt,50.1128448,8.6527363,867,Friedrich-Ebert-Anlage,ungerade,49,,,,2,Westend-Süd,170,2.11,2,Bockenheim,13.0,60308
Nordendplatz 60318 Frankfurt,50.12896255,8.688150919245647,1823,Nordendplatz,,,,,,3,Nordend-West,212,3.17,3,Ost,3.0,60318
Am Günthersbrunnen 60388 Frankfurt,50.1562038,8.7545472,2840,Am Günthersbrunnen,,,,,,16,Bergen-Enkheim,680,16.83,16,Ost,18.0,60388
Amelia-Mary-Earhart-Straße 60549 Frankfurt,50.055046,8.5935818,3552,Amelia-Mary-Earhart-Straße,,,,,,5,Flughafen,327,5.34,5A,Sachsenhausen,19.0,60549
Berger Weg 60389 Frankfurt,50.153931,8.7169189,397,Berger Weg,,,,,,11,Seckbach,390,11.75,11,Ost,6.0,60389
An der Walkmühle 60437 Frankfurt,50.2005543,8.6713614,2756,An der Walkmühle,,,,,,15,Nieder-Eschbach,670,15.82,15,Nord,14.0,60437
Geleitsstraße 60599 Frankfurt,50.0997562,8.6947488,915,Geleitsstraße,,,,,,5,Sachsenhausen-S.,332,5.29,5A,Sachsenhausen,8.0,60599
Gerbermühlstraße 60594 Frankfurt,50.1049193,8.6952502,924,Gerbermühlstraße,ungerade,3,,63,,5,Sachsenhausen-N.,331,5.31,5A,Sachsenhausen,8.0,60594
Mariannenstraße 60599 Frankfurt,50.1011919,8.698404016110626,1663,Mariannenstraße,,,,,,5,Sachsenhausen-S.,332,5.29,5A,Sachsenhausen,8.0,60599
Marbachweg 60389 Frankfurt,50.1441165,8.6937501,1659,Marbachweg,gerade,2,,,,11,Seckbach,390,11.75,11,Ost,6.0,60389
Altes Schützenhüttengäßchen 60599 Frankfurt,50.0923478,8.6942108,57,Altes Schützenhüttengäßchen,,,,,,5,Sachsenhausen-S.,332,5.29,5A,Sachsenhausen,8.0,60599
Von-Bernus-Park 60486 Frankfurt,50.1216652,8.637449715576555,3726,Von-Bernus-Park,,,,,,2,Bockenheim,350,2.13,2,Bockenheim,13.0,60486
Am Niedwald 65933 Frankfurt,50.1114939,8.5955116,157,Am Niedwald,,,,,,6,Griesheim,542,6.4,6A,Gallus,16.0,65933
In der Wink 60437 Frankfurt,50.1902438,8.6376015,2694,In der Wink,,,,,,12,Kalbach-Riedberg,650,12.79,12,Nord,14.0,60437
Hagenstraße 60314 Frankfurt,50.110493,8.709912,1057,Hagenstraße,,,,,,4,Ostend,261,4.27,4,Ost,5.0,60314
In der Fuchskaut 60437 Frankfurt,50.1880239,8.6961826,3505,In der Fuchskaut,,,,,,14,Harheim,660,14.81,14,Nord,14.0,60437
Eschenbachstraße 60596 Frankfurt,50.0951921,8.6680843,754,Eschenbachstraße,,,,,,5,Sachsenhausen-N.,322,5.33,5A,Sachsenhausen,8.0,60596
Zentgrafenstraße 60389 Frankfurt,50.1437184,8.7219184,2558,Zentgrafenstraße,,,,,,11,Seckbach,390,11.75,11,Ost,6.0,60389
Mammolshainer Straße 60326 Frankfurt,50.1063017,8.6233108,1654,Mammolshainer Straße,,,,,,1,Gallus,165,1.08,1,Gallus,4.0,60326
Schenkendorfstraße 60431 Frankfurt,50.150237,8.6577149,2119,Schenkendorfstraße,,,,,,9,Eschersheim,452,9.66,9,Dornbusch,12.0,60431
Alfred-Göbel-Weg 60388 Frankfurt,50.1507749,8.7541017,2834,Alfred-Göbel-Weg,,,,,,16,Bergen-Enkheim,680,16.83,16,Ost,18.0,60388
Lachnerstraße 60386 Frankfurt,50.1207991,8.7680221,1524,Lachnerstraße,,,,,,11,Fechenheim,520,11.78,11,Ost,18.0,60386
Herderstraße 60316 Frankfurt,50.1187639,8.6951771,1148,Herderstraße,,,,,,3,Nordend-Ost,130,3.2,3,Ost,3.0,60316
Odina-Bott-Platz 60323 Frankfurt,50.1182175,8.663368384290354,3357,Odina-Bott-Platz,,,,,,2,Westend-Süd,180,2.1,2,Bockenheim,3.0,60323
Bonameser Mittelgasse 60437 Frankfurt,50.1812098,8.6627534,471,Bonameser Mittelgasse,,,,,,10,Bonames,491,10.7,10,Nord,14.0,60437
Am Wendelsgarten 60437 Frankfurt,50.1838783,8.6660835,210,Am Wendelsgarten,,,,,,10,Bonames,491,10.7,10,Nord,14.0,60437
Polizeimeister-Kaspar-Straße 60320 Frankfurt,50.1334732,8.6726236,3321,Polizeimeister-Kaspar-Straße,,,,,,3,Nordend-West,202,3.16,3,Dornbusch,12.0,60320
Münchener Straße 60329 Frankfurt,50.1084259,8.6723076,1754,Münchener Straße,,,,,,1,Bahnhofsviertel,90,1.03,1,Gallus,4.0,60329
Melemstraße 60322 Frankfurt,50.1296821,8.6755229,1710,Melemstraße,,,,,,3,Nordend-West,203,3.16,3,Dornbusch,3.0,60322
Alt-Bergen 60388 Frankfurt,50.1550003,8.7545669,2835,Alt-Bergen,,,,,,16,Bergen-Enkheim,680,16.83,16,Ost,18.0,60388
Franklinstraße 60486 Frankfurt,50.1154181,8.6378426,842,Franklinstraße,,,,,,2,Bockenheim,342,2.14,2,Bockenheim,13.0,60486
Konstablerwache 60313 Frankfurt,50.1149772,8.6876403,1481,Konstablerwache,,,,,,1,Altstadt,10,1.01,1,Ost,1.0,60313
Schneidhainer Straße 60326 Frankfurt,50.1036442,8.6300321,2155,Schneidhainer Straße,ungerade,,,,,1,Gallus,165,1.08,1,Gallus,4.0,60326
Praunheimer Steg 60439 Frankfurt,50.1565492,8.6323651,2591,Praunheimer Steg,,,,,,8,Heddernheim,432,8.62,8,Nord,14.0,60439
Kiesstraße 60486 Frankfurt,50.1180963,8.6480591,1408,Kiesstraße,,,,,,2,Bockenheim,341,2.13,2,Bockenheim,13.0,60486
Pflugstraße 60431 Frankfurt,50.1426242,8.6549496,1923,Pflugstraße,,,,,,9,Ginnheim,441,9.67,9,Nord,12.0,60431
Langenhainer Straße 60326 Frankfurt,50.1032432,8.628242,1540,Langenhainer Straße,,,,,,1,Gallus,165,1.08,1,Gallus,4.0,60326
Am Weißberg 60437 Frankfurt,50.1911055,8.6339558,2676,Am Weißberg,,,,,,12,Kalbach-Riedberg,650,12.79,12,Nord,14.0,60437
Hennegasse 60439 Frankfurt,50.1678663,8.6181647,1138,Hennegasse,,,,,,8,Niederursel,481,8.63,8,Nord,14.0,60439
Fontanestraße 60431 Frankfurt,50.1493841,8.6623225,825,Fontanestraße,,,,,,9,Dornbusch,442,9.68,9,Dornbusch,12.0,60431
Letzter Hasenpfad 60598 Frankfurt,50.0927034,8.6833569,1574,Letzter Hasenpfad,,,,,,5,Sachsenhausen-S.,323,5.3,5A,Sachsenhausen,8.0,60598
Höhenblick 60431 Frankfurt,50.1468382,8.6549131,1190,Höhenblick,,,,,,9,Ginnheim,441,9.67,9,Nord,12.0,60431
Zwischenstraße 60594 Frankfurt,50.1030391,8.6941301,2580,Zwischenstraße,,,,,,5,Sachsenhausen-N.,331,5.31,5A,Sachsenhausen,8.0,60594
Zur Untermühle 60437 Frankfurt,50.1848724,8.6926041,2735,Zur Untermühle,,,,,,14,Harheim,660,14.81,14,Nord,14.0,60437
Anna-Seghers-Pfad 60322 Frankfurt,50.1327246,8.6822272,3746,Anna-Seghers-Pfad,,,,,,3,Nordend-West,202,3.16,3,Dornbusch,3.0,60322
Gebrüder-Hommel-Anlage 60435 Frankfurt,50.1506989,8.676284884780959,3120,Gebrüder-Hommel-Anlage,,,,,,10,Eckenheim,461,10.72,10,Dornbusch,12.0,60435
Taunusanlage 60329 Frankfurt,50.1109328,8.6704442,2329,Taunusanlage,ungerade,1,,11,,1,Bahnhofsviertel,90,1.03,1,Gallus,4.0,60329
Morgenzeile 60529 Frankfurt,50.0853712,8.6173239,1741,Morgenzeile,,,,,,6,Schwanheim,532,6.37,6A,Sachsenhausen,10.0,60529
Am Hohen Markstein 60389 Frankfurt,50.1374441,8.7103986,3306,Am Hohen Markstein,,,,,,4,Bornheim,272,4.22,4,Ost,6.0,60389
Katherine-Stinson-Weg 60549 Frankfurt,50.0545276,8.5935322,3739,Katherine-Stinson-Weg,,,,,,5,Flughafen,327,5.34,5A,Sachsenhausen,19.0,60549
Emmy-Klieneberger-Nobel-Straße 60439 Frankfurt,50.1710474,8.6288229,3751,Emmy-Klieneberger-Nobel-Straße,,,,,,8,Niederursel,484,8.63,8,Nord,14.0,60439
Gwinnerstraße 60388 Frankfurt,50.1415539,8.7347314,1033,Gwinnerstraße,,,,,,11,Seckbach,390,11.75,11,Ost,18.0,60388
Ginnheimer Landstraße 60431 Frankfurt,50.1420361,8.647929,941,Ginnheimer Landstraße,ungerade,109,,209,,9,Ginnheim,441,9.67,9,Nord,12.0,60431
Hafentunnel 60327 Frankfurt,50.1045957,8.65782,3341,Hafentunnel,,,,,,1,Gallus,152,1.06,1,Gallus,4.0,60327
Anne-Frank-Straße 60433 Frankfurt,50.15988625,8.662792569660123,261,Anne-Frank-Straße,,,,,,9,Eschersheim,451,9.65,9,Dornbusch,12.0,60433
Am Nonnenhof 60435 Frankfurt,50.1562297,8.6934818,3312,Am Nonnenhof,,,,,,10,Preungesheim,470,10.73,10,Dornbusch,12.0,60435
Elkenbachstraße 60316 Frankfurt,50.1217955,8.6948306,716,Elkenbachstraße,ungerade,,,,,3,Nordend-Ost,130,3.2,3,Ost,3.0,60316
Stephensonstraße 60326 Frankfurt,50.1066514,8.6402972,3192,Stephensonstraße,,,,,,1,Gallus,162,1.07,1,Gallus,4.0,60326
Kastanienstraße 65933 Frankfurt,50.0987089,8.6040648,1384,Kastanienstraße,,,,,,6,Griesheim,552,6.41,6A,Gallus,16.0,65933
Biebergasse 60313 Frankfurt,50.1141435,8.6771737,423,Biebergasse,,,,,,1,Innenstadt,50,1.02,1,Ost,1.0,60313
Grüne Winkel 65934 Frankfurt,50.1081778,8.5824407,1010,Grüne Winkel,,,,,,6,Nied,562,6.43,6A,Höchst,16.0,65934
Esslinger Straße 60329 Frankfurt,50.1023012,8.6630951,762,Esslinger Straße,,,,,,1,Gutleutviertel,151,1.04,1,Gallus,4.0,60329
H.-P.-Müller-Platz 60439 Frankfurt,50.1616619,8.648871467860253,3318,H.-P.-Müller-Platz,,,,,,8,Heddernheim,431,8.61,8,Nord,14.0,60439
Wiesbadener Straße 65931 Frankfurt,50.1277824,8.565491,2505,Wiesbadener Straße,,,,,,6,Zeilsheim,611,6.49,6B,Höchst,17.0,65931
August-Bebel-Straße 65933 Frankfurt,50.092355,8.6109306,305,August-Bebel-Straße,,,,,,6,Griesheim,541,6.39,6A,Gallus,16.0,65933
Am Faulbrunnen 65936 Frankfurt,50.1186742,8.5658491,107,Am Faulbrunnen,,,,,,6,Sossenheim,631,6.53,6C,Höchst,17.0,65936
Niederräder Ufer 60528 Frankfurt,50.0919771,8.6441659,1811,Niederräder Ufer,,,,,,5,Niederrad,371,5.35,5B,Sachsenhausen,10.0,60528
Schärfengäßchen 60311 Frankfurt,50.1133202,8.6817625,2105,Schärfengäßchen,,,,,,1,Altstadt,10,1.01,1,Ost,1.0,60311
Fuchstanzstraße 60489 Frankfurt,50.1285639,8.6098005,887,Fuchstanzstraße,,,,,,7,Rödelheim,401,7.55,7,Bockenheim,11.0,60489
Dreieichstraße 60594 Frankfurt,50.1028361,8.6906329,663,Dreieichstraße,ungerade,,,,,5,Sachsenhausen-N.,331,5.31,5A,Sachsenhausen,8.0,60594
Am Rosenberg 65934 Frankfurt,50.1027388,8.5592742,168,Am Rosenberg,,,,,,6,Nied,561,6.42,6A,Höchst,17.0,65934
Heilmannstraße 60439 Frankfurt,50.1548366,8.6275418,1118,Heilmannstraße,,,,,,8,Praunheim,426,8.62,7,Nord,14.0,60439
In der Beginenklause 60599 Frankfurt,50.099343,8.7270692,1296,In der Beginenklause,,,,,,5,Oberrad,380,5.28,5A,Sachsenhausen,8.0,60599
Rödelheimer Landstraße 60489 Frankfurt,50.1219942,8.6145604,2026,Rödelheimer Landstraße,ungerade,93,,149,,7,Rödelheim,401,7.55,7,Bockenheim,11.0,60489
Niedergärtenstraße 60435 Frankfurt,50.1507757,8.6807746,1806,Niedergärtenstraße,,,,,,10,Eckenheim,461,10.72,10,Dornbusch,12.0,60435
Berkersheimer Untergasse 60435 Frankfurt,50.1733252,8.6965159,403,Berkersheimer Untergasse,,,,,,10,Berkersheim,500,10.74,10,Nord,14.0,60435
Bertha-Pappenheim-Platz 60311 Frankfurt,50.10711525,8.67392256694123,3754,Bertha-Pappenheim-Platz,,,,,,1,Innenstadt,40,1.03,1,Ost,1.0,60311
Bregenzer Straße 60386 Frankfurt,50.117925,8.7688879,489,Bregenzer Straße,,,,,,11,Fechenheim,520,11.78,11,Ost,18.0,60386
Hirschhornstraße 60599 Frankfurt,50.1006028,8.7199909,1176,Hirschhornstraße,,,,,,5,Oberrad,380,5.28,5A,Sachsenhausen,8.0,60599
Heisterstraße 60594 Frankfurt,50.1026505,8.6913583,1133,Heisterstraße,,,,,,5,Sachsenhausen-N.,331,5.31,5A,Sachsenhausen,8.0,60594
Rugierstraße 65929 Frankfurt,50.1138151,8.5406751,2071,Rugierstraße,,,,,,6,Unterliederbach,622,6.52,6C,Höchst,17.0,65929
Am Henninger Turm 60599 Frankfurt,50.0970614,8.6963531,3705,Am Henninger Turm,,,,,,5,Sachsenhausen-S.,332,5.29,5A,Sachsenhausen,8.0,60599
Stichlingstraße 60327 Frankfurt,50.0994818,8.6582349,3425,Stichlingstraße,,,,,,1,Gutleutviertel,151,1.04,1,Gallus,4.0,60327
Lucaestraße 60433 Frankfurt,50.1484637,8.6667084,1617,Lucaestraße,,,,,,9,Eschersheim,452,9.66,9,Dornbusch,12.0,60433
Hildegard-von-Bingen-Weg 60439 Frankfurt,50.1681807,8.6423887,3442,Hildegard-von-Bingen-Weg,,,,,,8,Niederursel,483,8.63,8,Nord,14.0,60439
Südpassage 60549 Frankfurt,50.0516594,8.5704426,3085,Südpassage,,,,,,5,Flughafen,329,5.34,5A,Sachsenhausen,19.0,60549
Laubestraße 60594 Frankfurt,50.1030053,8.6852931,1549,Laubestraße,,,,,,5,Sachsenhausen-N.,324,5.32,5A,Sachsenhausen,8.0,60594
Ferdinand-Scholling-Ring 65934 Frankfurt,50.1054793,8.5834684,3150,Ferdinand-Scholling-Ring,,,,,,6,Nied,562,6.43,6A,Höchst,16.0,65934
Im Braungeröll 60431 Frankfurt,50.1428127,8.6504701,2947,Im Braungeröll,,,,,,9,Ginnheim,441,9.67,9,Nord,12.0,60431
Kasernenstraße 60486 Frankfurt,50.1206995,8.6334899,1380,Kasernenstraße,,,,,,7,Bockenheim,343,7.57,2,Bockenheim,11.0,60486
Oberer Kirchwiesenweg 60437 Frankfurt,50.1989338,8.6758393,2745,Oberer Kirchwiesenweg,,,,,,15,Nieder-Eschbach,670,15.82,15,Nord,14.0,60437
Im Steinchen 60388 Frankfurt,50.1529254,8.7546628,3314,Im Steinchen,,,,,,16,Bergen-Enkheim,680,16.83,16,Ost,18.0,60388
Niedereschbacher Stadtweg 60437 Frankfurt,50.19809,8.6734308,2776,Niedereschbacher Stadtweg,,,,,,15,Nieder-Eschbach,670,15.82,15,Nord,14.0,60437
Adickesallee 60320 Frankfurt,50.1321306,8.6724952,9,Adickesallee,gerade,44,,,,3,Nordend-West,202,3.16,3,Dornbusch,12.0,60320
Heinrich-Hopf-Straße 65936 Frankfurt,50.1281732,8.5876017,3198,Heinrich-Hopf-Straße,,,,,,6,Sossenheim,632,6.54,6C,Höchst,17.0,65936
Am Grünhof 60320 Frankfurt,50.1358908,8.6701662,119,Am Grünhof,,,,,,2,Westend-Nord,192,2.09,2,Dornbusch,12.0,60320
Danziger Platz 60314 Frankfurt,50.1136066,8.7080031,619,Danziger Platz,ungerade,,,,,4,Ostend,261,4.27,4,Ost,5.0,60314
Amtsgasse 65929 Frankfurt,50.1014168,8.5531066,198,Amtsgasse,,,,,,6,Höchst,580,6.45,6C,Höchst,17.0,65929
Windmühlstraße 60329 Frankfurt,50.1049003,8.6707832,2529,Windmühlstraße,,,,,,1,Bahnhofsviertel,90,1.03,1,Gallus,4.0,60329
Paradiesgasse 60594 Frankfurt,50.104607,8.6898343,1892,Paradiesgasse,,,,,,5,Sachsenhausen-N.,300,5.31,5A,Sachsenhausen,8.0,60594
Brühlfeld 60439 Frankfurt,50.1635941,8.6475004,516,Brühlfeld,,,,,,8,Heddernheim,431,8.61,8,Nord,14.0,60439
Graf-de-Thoranc-Passage 60311 Frankfurt,50.1110454,8.6779237,974,Graf-de-Thoranc-Passage,,,,,,1,Altstadt,10,1.01,1,Ost,1.0,60311
Wellengasse 60599 Frankfurt,50.101011,8.7223548,2477,Wellengasse,,,,,,5,Oberrad,380,5.28,5A,Sachsenhausen,8.0,60599
Wildgäßchen 60599 Frankfurt,50.0997518,8.719197,2513,Wildgäßchen,,,,,,5,Oberrad,380,5.28,5A,Sachsenhausen,8.0,60599
Haingasse 60388 Frankfurt,50.157275,8.7564463,2876,Haingasse,,,,,,16,Bergen-Enkheim,680,16.83,16,Ost,18.0,60388
Buchbornstraße 60488 Frankfurt,50.1468727,8.6193288,521,Buchbornstraße,,,,,,7,Praunheim,422,7.59,7,Bockenheim,14.0,60488
Neumarkt 65934 Frankfurt,50.1082861,8.583874,1790,Neumarkt,,,,,,6,Nied,562,6.43,6A,Höchst,16.0,65934
Sebastian-Rinz-Straße 60323 Frankfurt,50.1302157,8.6622717,2209,Sebastian-Rinz-Straße,,,,,,2,Westend-Nord,191,2.09,2,Dornbusch,3.0,60323
Hersfelder Straße 60487 Frankfurt,50.1228315,8.6359217,1157,Hersfelder Straße,,,,,,2,Bockenheim,350,2.13,2,Bockenheim,13.0,60487
Hans-Poelzig-Straße 60438 Frankfurt,50.1779767,8.6182283,3661,Hans-Poelzig-Straße,,,,,,12,Kalbach-Riedberg,651,12.79,12,Nord,14.0,60438
Ambronenpfad 65929 Frankfurt,50.1134404,8.5405841,3615,Ambronenpfad,,,,,,6,Unterliederbach,622,6.52,6C,Höchst,17.0,65929
Röderbergweg 60385 Frankfurt,50.1212823,8.7174768,2029,Röderbergweg,ungerade,121,,259,,4,Ostend,252,4.25,4,Ost,5.0,60385
Stephan-Heise-Straße 60488 Frankfurt,50.1351692,8.6156084,2294,Stephan-Heise-Straße,,,,,,7,Praunheim,423,7.59,7,Bockenheim,11.0,60488
Waldschmidtstraße 60314 Frankfurt,50.1160346,8.70762,2431,Waldschmidtstraße,ungerade,71,,87,,4,Ostend,251,4.25,4,Ost,5.0,60314
Alt-Eschersheim 60433 Frankfurt,50.162416,8.6567631,53,Alt-Eschersheim,ungerade,3,,7,,9,Eschersheim,452,9.66,9,Dornbusch,12.0,60433
Am Satz 60437 Frankfurt,50.2059149,8.715691,2642,Am Satz,,,,,,13,Nieder-Erlenbach,640,13.8,13,Nord,14.0,60437
Auf der Insel 60489 Frankfurt,50.12401,8.612408,294,Auf der Insel,,,,,,7,Rödelheim,401,7.55,7,Bockenheim,11.0,60489
Geibelstraße 60385 Frankfurt,50.1179041,8.7123095,906,Geibelstraße,,,,,,4,Ostend,252,4.25,4,Ost,5.0,60385
Am Flughafen 60549 Frankfurt,50.0540704,8.5752451,3626,Am Flughafen,,,,,,5,Flughafen,329,5.34,5A,Sachsenhausen,19.0,60549
Seilerstraße 60313 Frankfurt,50.1160903,8.6917743,2221,Seilerstraße,,,,,,1,Innenstadt,70,1.01,1,Ost,1.0,60313
Alt-Enkheim 60388 Frankfurt,50.1495645,8.7534999,2836,Alt-Enkheim,,,,,,16,Bergen-Enkheim,680,16.83,16,Ost,18.0,60388
Waldecker Straße 60433 Frankfurt,50.15241585,8.672945917502629,2425,Waldecker Straße,,,,,,9,Dornbusch,462,9.69,9,Dornbusch,12.0,60433
Junghofstraße 60315 Frankfurt,50.113395,8.6717996,1340,Junghofstraße,ungerade,5,,11a,a,1,Innenstadt,40,1.03,1,Ost,1.0,60315
Am Römerbrunnen 60437 Frankfurt,50.1865131,8.701021,2710,Am Römerbrunnen,,,,,,14,Harheim,660,14.81,14,Nord,14.0,60437
Münzenberger Straße 60389 Frankfurt,50.1321104,8.6955476,1757,Münzenberger Straße,,,,,,3,Nordend-Ost,222,3.18,3,Ost,6.0,60389
Lepsiusstraße 65933 Frankfurt,50.0918728,8.5989218,1568,Lepsiusstraße,,,,,,6,Griesheim,551,6.39,6A,Gallus,16.0,65933
Eptingweg 65929 Frankfurt,50.1066982,8.5378434,740,Eptingweg,,,,,,6,Unterliederbach,621,6.51,6C,Höchst,17.0,65929
Glaserstraße 60599 Frankfurt,50.0996379,8.7286888,948,Glaserstraße,,,,,,5,Oberrad,380,5.28,5A,Sachsenhausen,8.0,60599
Am Bornheimer Hang 60386 Frankfurt,50.1323078,8.7204484,89,Am Bornheimer Hang,gerade,2,,4,,4,Bornheim,281,4.24,4,Ost,6.0,60386
Sperberweg 60437 Frankfurt,50.1869647,8.6341671,2701,Sperberweg,,,,,,12,Kalbach-Riedberg,650,12.79,12,Nord,14.0,60437
Haenischstraße 60386 Frankfurt,50.1322899,8.7322173,1044,Haenischstraße,,,,,,11,Seckbach,390,11.75,11,Ost,18.0,60386
Am Salusbach 65936 Frankfurt,50.1198864,8.568888,2994,Am Salusbach,,,,,,6,Sossenheim,632,6.54,6C,Höchst,17.0,65936
Kleine Bockenheimer Straße 60313 Frankfurt,50.1142761,8.6739303,1430,Kleine Bockenheimer Straße,,,,,,1,Innenstadt,50,1.02,1,Ost,1.0,60313
Seckbacher Klemmenweg 60389 Frankfurt,50.1465959,8.7368944,3159,Seckbacher Klemmenweg,,,,,,11,Seckbach,390,11.75,11,Ost,6.0,60389
Beethovenstraße 60325 Frankfurt,50.1196607,8.6567893,391,Beethovenstraße,,,,,,2,Westend-Süd,170,2.11,2,Bockenheim,13.0,60325
Jahnstraße 60318 Frankfurt,50.1204521,8.6828591,1314,Jahnstraße,,,,,,3,Nordend-West,120,3.21,3,Ost,3.0,60318
Hahnstraße 60528 Frankfurt,50.0790749,8.6341618,1059,Hahnstraße,,,,,,5,Niederrad,373,5.36,5B,Sachsenhausen,10.0,60528
Hadrianstraße 60439 Frankfurt,50.1530953,8.6355409,1040,Hadrianstraße,,,,,,8,Heddernheim,432,8.62,8,Nord,14.0,60439
Unterer Kirchwiesenweg 60437 Frankfurt,50.1991273,8.676896,2748,Unterer Kirchwiesenweg,,,,,,15,Nieder-Eschbach,670,15.82,15,Nord,14.0,60437
Walldorfer Straße 60598 Frankfurt,50.0933649,8.6826111,2435,Walldorfer Straße,,,,,,5,Sachsenhausen-S.,323,5.3,5A,Sachsenhausen,8.0,60598
Elsa-Brändström-Platz 60325 Frankfurt,50.1141053,8.6642914,1022,Elsa-Brändström-Platz,,,,,,2,Westend-Süd,100,2.11,2,Bockenheim,13.0,60325
Alte Mainzer Gasse 60311 Frankfurt,50.109323,8.6803583,47,Alte Mainzer Gasse,,,,,,1,Altstadt,10,1.01,1,Ost,1.0,60311
Franz-Rücker-Allee 60487 Frankfurt,50.1251553,8.646896,848,Franz-Rücker-Allee,,,,,,2,Bockenheim,362,2.12,2,Bockenheim,13.0,60487
Leo-Tolstoj-Straße 60437 Frankfurt,50.2033729,8.6714796,2739,Leo-Tolstoj-Straße,,,,,,15,Nieder-Eschbach,670,15.82,15,Nord,14.0,60437
Schaumburger Straße 65936 Frankfurt,50.1206346,8.5649753,2110,Schaumburger Straße,,,,,,6,Sossenheim,631,6.53,6C,Höchst,17.0,65936
Mainwasenweg 60599 Frankfurt,50.1055129,8.7163644,1649,Mainwasenweg,,,,,,5,Sachsenhausen-N.,331,5.31,5A,Sachsenhausen,8.0,60599
Franz-Diehl-Weg 65934 Frankfurt,50.1061832,8.5865207,3167,Franz-Diehl-Weg,,,,,,6,Nied,562,6.43,6A,Höchst,16.0,65934
Gickelgasse 60437 Frankfurt,50.1890412,8.6374718,2687,Gickelgasse,,,,,,12,Kalbach-Riedberg,650,12.79,12,Nord,14.0,60437
Lindenau 60433 Frankfurt,50.1576872,8.6562254,1593,Lindenau,,,,,,9,Eschersheim,451,9.65,9,Dornbusch,12.0,60433
Haeberlinstraße 60431 Frankfurt,50.1519169,8.6616172,1041,Haeberlinstraße,,,,,,9,Eschersheim,452,9.66,9,Dornbusch,12.0,60431
In den Aspen 60437 Frankfurt,50.1872835,8.6963864,3506,In den Aspen,,,,,,14,Harheim,660,14.81,14,Nord,14.0,60437
Souchaystraße 60594 Frankfurt,50.1030354,8.6818583,2258,Souchaystraße,,,,,,5,Sachsenhausen-N.,324,5.32,5A,Sachsenhausen,8.0,60594
Sodener Straße 60326 Frankfurt,50.1021606,8.6301345,2244,Sodener Straße,ungerade,,,,,1,Gallus,165,1.08,1,Gallus,4.0,60326
Thomasiusstraße 60316 Frankfurt,50.1182461,8.6968234,2350,Thomasiusstraße,,,,,,3,Nordend-Ost,130,3.2,3,Ost,3.0,60316
Johann-Usener-Straße 60388 Frankfurt,50.1541935,8.7602321,2891,Johann-Usener-Straße,,,,,,16,Bergen-Enkheim,680,16.83,16,Ost,18.0,60388
Am Bienenstock 60388 Frankfurt,50.1554292,8.7585282,2839,Am Bienenstock,,,,,,16,Bergen-Enkheim,680,16.83,16,Ost,18.0,60388
Parkstraße 60322 Frankfurt,50.1233996,8.6687306,1893,Parkstraße,,,,,,2,Westend-Nord,191,2.09,2,Dornbusch,3.0,60322
Franz-Henle-Straße 65929 Frankfurt,50.1033079,8.5369184,843,Franz-Henle-Straße,,,,,,6,Unterliederbach,621,6.51,6C,Höchst,17.0,65929
Montabaurer Straße 65936 Frankfurt,50.1232311,8.5643945,1739,Montabaurer Straße,,,,,,6,Sossenheim,631,6.53,6C,Höchst,17.0,65936
Wilhelm-Koppel-Weg 65934 Frankfurt,50.1055851,8.5877797,3519,Wilhelm-Koppel-Weg,,,,,,6,Nied,562,6.43,6A,Höchst,16.0,65934
Miquelallee 60320 Frankfurt,50.1317784,8.671115,1727,Miquelallee,ungerade,191,,,,2,Westend-Nord,192,2.09,2,Dornbusch,3.0,60320
Josef-Benner-Weg 65934 Frankfurt,50.106719,8.5841829,3162,Josef-Benner-Weg,,,,,,6,Nied,562,6.43,6A,Höchst,16.0,65934
Bremer Straße 60323 Frankfurt,50.1251841,8.6702745,496,Bremer Straße,ungerade,,,,,2,Westend-Nord,191,2.09,2,Dornbusch,3.0,60323
Konrad-Glatt-Straße 65929 Frankfurt,50.1036711,8.546379,1479,Konrad-Glatt-Straße,,,,,,6,Höchst,570,6.44,6C,Höchst,17.0,65929
Am Steinernen Kreuz 65933 Frankfurt,50.1023268,8.5977985,188,Am Steinernen Kreuz,,,,,,6,Griesheim,542,6.4,6A,Gallus,16.0,65933
Baruch-Baschwitz-Platz 60489 Frankfurt,50.124374,8.6077595,3144,Baruch-Baschwitz-Platz,,,,,,7,Rödelheim,402,7.56,7,Bockenheim,11.0,60489
Am Seckbacher Ried 60388 Frankfurt,50.1442578,8.7399835,3156,Am Seckbacher Ried,,,,,,11,Seckbach,390,11.75,11,Ost,6.0,60388
Brüder-Grimm-Straße 60385 Frankfurt,50.1203673,8.7113897,515,Brüder-Grimm-Straße,ungerade,31,,61,,4,Ostend,252,4.25,4,Ost,5.0,60385
Hochstädter Straße 60389 Frankfurt,50.141585,8.7274637,1182,Hochstädter Straße,,,,,,11,Seckbach,390,11.75,11,Ost,6.0,60389
Schliephakestraße 65934 Frankfurt,50.1035351,8.5713537,2139,Schliephakestraße,,,,,,6,Nied,562,6.43,6A,Höchst,16.0,65934
Am Alten Friedhof 60594 Frankfurt,50.1038542,8.686972559807792,3380,Am Alten Friedhof,,,,,,5,Sachsenhausen-N.,324,5.32,5A,Sachsenhausen,8.0,60594
Wurmbachstraße 60487 Frankfurt,50.1234062,8.6462794,2548,Wurmbachstraße,,,,,,2,Bockenheim,361,2.12,2,Bockenheim,13.0,60487
Daimlerstraße 60314 Frankfurt,50.1224271,8.7401097,613,Daimlerstraße,,,,,,4,Ostend,261,4.27,4,Ost,5.0,60314
Am Erlenbruch 60386 Frankfurt,50.1316606,8.7406402,105,Am Erlenbruch,ungerade,1,,,,4,Bornheim,281,4.24,4,Ost,6.0,60386
Am Lachgraben 65931 Frankfurt,50.08528,8.5157846,139,Am Lachgraben,,,,,,6,Sindlingen,601,6.47,6B,Höchst,17.0,65931
Klingerstraße 60313 Frankfurt,50.1147004,8.6891719,1451,Klingerstraße,ungerade,1,,9,,1,Innenstadt,80,1.01,1,Ost,1.0,60313
Im Hain 60437 Frankfurt,50.1892462,8.6435253,2691,Im Hain,,,,,,12,Kalbach-Riedberg,650,12.79,12,Nord,14.0,60437
Kellerbornstraße 60439 Frankfurt,50.1653235,8.6312912,1396,Kellerbornstraße,,,,,,8,Niederursel,481,8.63,8,Nord,14.0,60439
Clematisweg 60433 Frankfurt,50.1645402,8.6848453,3373,Clematisweg,,,,,,10,Frankfurter Berg,492,10.71,10,Nord,14.0,60433
Anzengruberstraße 60320 Frankfurt,50.1414689,8.6669041,268,Anzengruberstraße,,,,,,9,Dornbusch,442,9.68,9,Dornbusch,12.0,60320
Friedrich-Stampfer-Straße 60437 Frankfurt,50.1854508,8.6644568,873,Friedrich-Stampfer-Straße,,,,,,10,Bonames,491,10.7,10,Nord,14.0,60437
An der Lindenallee 60433 Frankfurt,50.1700094,8.6747009,3452,An der Lindenallee,,,,,,10,Frankfurter Berg,492,10.71,10,Nord,14.0,60433
Kandelstraße 60528 Frankfurt,50.085872,8.6435846,1356,Kandelstraße,,,,,,5,Niederrad,371,5.35,5B,Sachsenhausen,10.0,60528
Hinter den Eichbäumen 60433 Frankfurt,50.163347,8.6579667,1171,Hinter den Eichbäumen,,,,,,9,Eschersheim,451,9.65,9,Dornbusch,12.0,60433
Gustav-Freytag-Straße 60320 Frankfurt,50.142159,8.6650982,1026,Gustav-Freytag-Straße,,,,,,9,Dornbusch,442,9.68,9,Dornbusch,12.0,60320
Marxheimer Platz 60326 Frankfurt,50.1015139,8.6196207,1680,Marxheimer Platz,,,,,,1,Gallus,164,1.08,1,Gallus,16.0,60326
Schottener Straße 60435 Frankfurt,50.1514459,8.6869775,2168,Schottener Straße,,,,,,10,Eckenheim,461,10.72,10,Dornbusch,12.0,60435
Fahrgasse 60311 Frankfurt,50.112187,8.6859152,773,Fahrgasse,,,,,,1,Altstadt,10,1.01,1,Ost,1.0,60311
Harheimer Stadtweg 60437 Frankfurt,50.1829813,8.6957007,2717,Harheimer Stadtweg,,,,,,14,Harheim,660,14.81,14,Nord,14.0,60437
Horst-Lippmann-Platz 60313 Frankfurt,50.1142331,8.673711357496463,3485,Horst-Lippmann-Platz,,,,,,1,Innenstadt,50,1.02,1,Ost,1.0,60313
Liegnitzer Straße 60598 Frankfurt,50.0894875,8.6735037,1587,Liegnitzer Straße,,,,,,5,Sachsenhausen-S.,326,5.34,5A,Sachsenhausen,8.0,60598
Dietrich-Bonhoeffer-Weg 60389 Frankfurt,50.1402615,8.7033618,3446,Dietrich-Bonhoeffer-Weg,,,,,,4,Bornheim,272,4.22,4,Ost,6.0,60389
Alfred-Kiefer-Weg 60529 Frankfurt,50.083895,8.6141668,3499,Alfred-Kiefer-Weg,,,,,,6,Schwanheim,532,6.37,6A,Sachsenhausen,10.0,60529
Stresemannallee 60598 Frankfurt,50.0886308,8.6717728,2314,Stresemannallee,gerade,78,,96,,5,Sachsenhausen-S.,326,5.34,5A,Sachsenhausen,8.0,60598
Theodor-Heuss-Allee 60486 Frankfurt,50.114572,8.6357347,2344,Theodor-Heuss-Allee,ungerade,5,,25,,2,Westend-Süd,170,2.11,2,Bockenheim,13.0,60486
Saalburgstraße 60385 Frankfurt,50.125688,8.7098141,2078,Saalburgstraße,ungerade,1,,19,,4,Bornheim,282,4.24,4,Ost,5.0,60385
Aßlarer Straße 60439 Frankfurt,50.1634982,8.6421465,3010,Aßlarer Straße,,,,,,8,Heddernheim,431,8.61,8,Nord,14.0,60439
Im Bärengarten 60599 Frankfurt,50.1039365,8.7126587,1254,Im Bärengarten,,,,,,5,Sachsenhausen-N.,331,5.31,5A,Sachsenhausen,8.0,60599
Am Leisrain 65936 Frankfurt,50.1120204,8.5547758,142,Am Leisrain,,,,,,6,Sossenheim,631,6.53,6C,Höchst,17.0,65936
Im Trierischen Hof 60311 Frankfurt,50.1126498,8.6842132,1281,Im Trierischen Hof,,,,,,1,Altstadt,10,1.01,1,Ost,1.0,60311
Rückertstraße 60314 Frankfurt,50.1117359,8.6997204,2065,Rückertstraße,,,,,,4,Ostend,140,4.26,4,Ost,5.0,60314
In der Römerstadt 60439 Frankfurt,50.1553374,8.6413889,1299,In der Römerstadt,ungerade,1,,21,,8,Heddernheim,431,8.61,8,Nord,14.0,60439
Kopernikusstraße 65929 Frankfurt,50.106043,8.5393963,1484,Kopernikusstraße,ungerade,17,,19a,a,6,Höchst,570,6.44,6C,Höchst,17.0,65929
Schlitzer Straße 60386 Frankfurt,50.130813,8.7463883,2141,Schlitzer Straße,,,,,,11,Fechenheim,510,11.77,11,Ost,18.0,60386
Werftstraße 60327 Frankfurt,50.1011798,8.6628092,2483,Werftstraße,,,,,,1,Gutleutviertel,151,1.04,1,Gallus,4.0,60327
An den Bangerten 60487 Frankfurt,50.12442,8.6335745,3194,An den Bangerten,,,,,,7,Bockenheim,343,7.57,2,Bockenheim,11.0,60487
Am Riedgraben 60386 Frankfurt,50.1391591,8.7281143,3140,Am Riedgraben,,,,,,4,Bornheim,290,4.22,4,Ost,6.0,60386
An der Bleiche 60437 Frankfurt,50.1999604,8.7148601,2645,An der Bleiche,,,,,,13,Nieder-Erlenbach,640,13.8,13,Nord,14.0,60437
Voltenseeweg 60389 Frankfurt,50.1456641,8.7438242,3160,Voltenseeweg,,,,,,11,Seckbach,390,11.75,11,Ost,6.0,60389
Fischbacher Straße 60326 Frankfurt,50.1037298,8.631901,802,Fischbacher Straße,,,,,,1,Gallus,162,1.07,1,Gallus,4.0,60326
Coburger Weg 65931 Frankfurt,50.0954612,8.5008342,602,Coburger Weg,,,,,,6,Zeilsheim,611,6.49,6B,Höchst,17.0,65931
Germaniaplatz 60385 Frankfurt,50.1252,8.7012904,929,Germaniaplatz,,,,,,4,Bornheim,240,4.23,4,Ost,6.0,60385
Peter-Bied-Straße 65929 Frankfurt,50.1058777,8.5411339,1907,Peter-Bied-Straße,ungerade,3,,41,,6,Höchst,570,6.44,6C,Höchst,17.0,65929
Friedel-Schomann-Weg 60489 Frankfurt,50.1260017,8.6146962,3272,Friedel-Schomann-Weg,,,,,,7,Rödelheim,401,7.55,7,Bockenheim,11.0,60489
Carl-Theodor-Reiffenstein-Platz 60313 Frankfurt,50.11409135,8.683973818422317,3200,Carl-Theodor-Reiffenstein-Platz,,,,,,1,Altstadt,10,1.01,1,Ost,1.0,60313
Dreispitzstraße 60489 Frankfurt,50.1258255,8.6073047,667,Dreispitzstraße,,,,,,7,Rödelheim,402,7.56,7,Bockenheim,11.0,60489
Friedrich-Hund-Straße 60438 Frankfurt,50.1728167,8.6327987,3752,Friedrich-Hund-Straße,,,,,,8,Niederursel,484,8.63,8,Nord,14.0,60438
Kirschwaldstraße 60435 Frankfurt,50.1485154,8.6799153,1419,Kirschwaldstraße,ungerade,,,,,10,Eckenheim,461,10.72,10,Dornbusch,12.0,60435
Im Fuchsloch 60437 Frankfurt,50.2066765,8.7025913,2653,Im Fuchsloch,,,,,,13,Nieder-Erlenbach,640,13.8,13,Nord,14.0,60437
Neuer Weg 60388 Frankfurt,50.1498731,8.7526069,2900,Neuer Weg,,,,,,16,Bergen-Enkheim,680,16.83,16,Ost,18.0,60388
Buchenstraße 65933 Frankfurt,50.0958851,8.6070119,523,Buchenstraße,,,,,,6,Griesheim,552,6.41,6A,Gallus,16.0,65933
Käthchen-Paulus-Straße 60486 Frankfurt,50.1133438,8.6217013,3033,Käthchen-Paulus-Straße,,,,,,2,Bockenheim,163,2.15,2,Bockenheim,13.0,60486
Ratswegbrücke 60314 Frankfurt,50.12018965,8.72957166811465,1967,Ratswegbrücke,,,,,,4,Ostend,261,4.27,4,Ost,5.0,60314
Steinauer Straße 60386 Frankfurt,50.1351186,8.7574354,2283,Steinauer Straße,,,,,,11,Fechenheim,510,11.77,11,Ost,18.0,60386
Ankunftbogen (Flughafen Ffm.) 60549 Frankfurt,50.0520806,8.5754721,3084,Ankunftbogen (Flughafen Ffm.),,,,,,5,Flughafen,329,5.34,5A,Sachsenhausen,19.0,60549
Wöhlerstraße 60323 Frankfurt,50.1179682,8.6669068,2536,Wöhlerstraße,,,,,,2,Westend-Süd,110,2.1,2,Bockenheim,3.0,60323
Ossietzkystraße 60598 Frankfurt,50.0978438,8.6877883,2620,Ossietzkystraße,,,,,,5,Sachsenhausen-S.,323,5.3,5A,Sachsenhausen,8.0,60598
Wallfahrtsweg 60389 Frankfurt,50.1485305,8.7388334,3161,Wallfahrtsweg,,,,,,11,Seckbach,390,11.75,11,Ost,6.0,60389
Knöterichweg 60487 Frankfurt,50.1305707,8.6375082,3344,Knöterichweg,,,,,,2,Bockenheim,362,2.12,2,Bockenheim,13.0,60487
Eichenstraße 65933 Frankfurt,50.0951875,8.6027187,698,Eichenstraße,,,,,,6,Griesheim,552,6.41,6A,Gallus,16.0,65933
Rose-Schlösinger-Anlage 60385 Frankfurt,50.12731675,8.719407593399513,3220,Rose-Schlösinger-Anlage,,,,,,4,Bornheim,281,4.24,4,Ost,6.0,60385
Bernusstraße 60487 Frankfurt,50.1265894,8.6459974,409,Bernusstraße,,,,,,2,Bockenheim,362,2.12,2,Bockenheim,13.0,60487
Karl-Gerold-Platz 60594 Frankfurt,50.1013962,8.686509282740031,3579,Karl-Gerold-Platz,,,,,,5,Sachsenhausen-N.,324,5.32,5A,Sachsenhausen,8.0,60594
Abflugring (Flughafen Ffm.) 60549 Frankfurt,50.0522178,8.5789382,3083,Abflugring (Flughafen Ffm.),,,,,,5,Flughafen,327,5.34,5A,Sachsenhausen,19.0,60549
Draisbornstraße 60389 Frankfurt,50.1471461,8.7281746,662,Draisbornstraße,,,,,,11,Seckbach,390,11.75,11,Ost,6.0,60389
Elektronstraße 65933 Frankfurt,50.0977946,8.5982898,713,Elektronstraße,ungerade,1,,29,,6,Griesheim,551,6.39,6A,Gallus,16.0,65933
Wiesbadener Straße 65933 Frankfurt,50.1140229,8.5991833,2505,Wiesbadener Straße,,,,,,6,Griesheim,542,6.4,6A,Gallus,16.0,65933
Billtalstraße 65929 Frankfurt,50.1050761,8.5491573,428,Billtalstraße,,,,,,6,Höchst,580,6.45,6C,Höchst,17.0,65929
Ciolfstraße 65931 Frankfurt,50.0953184,8.4877591,3225,Ciolfstraße,,,,,,6,Zeilsheim,611,6.49,6B,Höchst,17.0,65931
Savignystraße 60325 Frankfurt,50.1109161,8.661748,2100,Savignystraße,ungerade,9,,67,,2,Westend-Süd,100,2.11,2,Bockenheim,13.0,60325
Am Posthorn 60486 Frankfurt,50.1198835,8.6198509,163,Am Posthorn,,,,,,2,Bockenheim,344,2.14,2,Bockenheim,11.0,60486
Platenstraße 60320 Frankfurt,50.1359772,8.667044,1933,Platenstraße,ungerade,1,,11,,2,Westend-Nord,192,2.09,2,Dornbusch,12.0,60320
Treunerweg 60431 Frankfurt,50.1555484,8.652998,3690,Treunerweg,,,,,,9,Eschersheim,452,9.66,9,Dornbusch,12.0,60431
Waitzstraße 60385 Frankfurt,50.1183296,8.7117974,2424,Waitzstraße,,,,,,4,Ostend,252,4.25,4,Ost,5.0,60385
Mönchhofstraße 60326 Frankfurt,50.1005102,8.6162949,1733,Mönchhofstraße,ungerade,,,,,6,Griesheim,542,6.4,6A,Gallus,16.0,60326
Rheinlandstraße 60529 Frankfurt,50.0870076,8.5926558,2002,Rheinlandstraße,ungerade,3,,53,,6,Schwanheim,532,6.37,6A,Sachsenhausen,10.0,60529
Am Hang 60437 Frankfurt,50.1867931,8.6476799,2671,Am Hang,,,,,,12,Kalbach-Riedberg,650,12.79,12,Nord,14.0,60437
Am Siegesbaum 60437 Frankfurt,50.2061353,8.7073059,3004,Am Siegesbaum,,,,,,13,Nieder-Erlenbach,640,13.8,13,Nord,14.0,60437
Ruprechtstraße 60385 Frankfurt,50.1234202,8.7128606,2076,Ruprechtstraße,,,,,,4,Bornheim,282,4.24,4,Ost,5.0,60385
Walter-Weisbecker-Weg 60320 Frankfurt,50.1419586,8.661446,3760,Walter-Weisbecker-Weg,,,,,,9,Ginnheim,441,9.67,9,Nord,12.0,60320
Heckerstraße 60529 Frankfurt,50.0857665,8.5773119,1100,Heckerstraße,,,,,,6,Schwanheim,531,6.38,6A,Sachsenhausen,10.0,60529
Blauländchenstraße 65931 Frankfurt,50.0934393,8.494629,445,Blauländchenstraße,,,,,,6,Zeilsheim,611,6.49,6B,Höchst,17.0,65931
Margarete-Schütte-Lihotzky-Anlage 60488 Frankfurt,50.1402971,8.610614067910795,3342,Margarete-Schütte-Lihotzky-Anlage,,,,,,7,Praunheim,422,7.59,7,Bockenheim,14.0,60488
Anneliese-Hoevel-Straße 60435 Frankfurt,50.1376939,8.6947909,3642,Anneliese-Hoevel-Straße,,,,,,3,Nordend-West,213,3.17,3,Ost,12.0,60435
Zeilweg 60439 Frankfurt,50.1623123,8.6405513,2555,Zeilweg,,,,,,8,Heddernheim,431,8.61,8,Nord,14.0,60439
Am Leinritt 60386 Frankfurt,50.1234878,8.7710386,141,Am Leinritt,,,,,,11,Fechenheim,520,11.78,11,Ost,18.0,60386
Zum Linnegraben 65933 Frankfurt,50.1018787,8.5968221,2574,Zum Linnegraben,ungerade,,,,,6,Griesheim,552,6.41,6A,Gallus,16.0,65933
Griesheimer Stadtweg 60327 Frankfurt,50.0919079,8.6205979,985,Griesheimer Stadtweg,ungerade,1,,,,1,Gutleutviertel,151,1.04,1,Gallus,16.0,60327
Burgholzer Straße 60433 Frankfurt,50.1557703,8.667752,578,Burgholzer Straße,,,,,,9,Eschersheim,452,9.66,9,Dornbusch,12.0,60433
Unter der Friedensbrücke 60327 Frankfurt,50.1014534,8.6634132,2392,Unter der Friedensbrücke,,,,,,1,Gutleutviertel,151,1.04,1,Gallus,4.0,60327
Hartmannweg 60389 Frankfurt,50.1442421,8.7078688,1088,Hartmannweg,,,,,,11,Seckbach,390,11.75,11,Ost,6.0,60389
Sömmerringstraße 60322 Frankfurt,50.1238222,8.6811347,2245,Sömmerringstraße,,,,,,3,Nordend-West,201,3.21,3,Dornbusch,3.0,60322
Burnitzstraße 60596 Frankfurt,50.097426,8.6733865,582,Burnitzstraße,,,,,,5,Sachsenhausen-N.,322,5.33,5A,Sachsenhausen,8.0,60596
Auerfeldstraße 60389 Frankfurt,50.1454338,8.7199612,282,Auerfeldstraße,,,,,,11,Seckbach,390,11.75,11,Ost,6.0,60389
Franz-Werfel-Straße 60431 Frankfurt,50.1389396,8.6586924,850,Franz-Werfel-Straße,,,,,,9,Ginnheim,441,9.67,9,Nord,12.0,60431
Kleyerstraße 60326 Frankfurt,50.0982391,8.6322255,1448,Kleyerstraße,ungerade,1,,55,,1,Gallus,153,1.05,1,Gallus,4.0,60326
Schmidtstraße 60326 Frankfurt,50.1007697,8.6190163,2150,Schmidtstraße,ungerade,9,,69,,1,Gallus,164,1.08,1,Gallus,16.0,60326
Arnsteiner Straße 60389 Frankfurt,50.1305156,8.699584,276,Arnsteiner Straße,,,,,,3,Nordend-Ost,222,3.18,3,Ost,6.0,60389
Weilburger Straße 60326 Frankfurt,50.0983647,8.63269,2467,Weilburger Straße,,,,,,1,Gallus,153,1.05,1,Gallus,4.0,60326
An der Mainkur 60386 Frankfurt,50.1347249,8.7687191,237,An der Mainkur,,,,,,11,Fechenheim,510,11.77,11,Ost,18.0,60386
Schleusenstraße 60327 Frankfurt,50.1021604,8.663034,2135,Schleusenstraße,,,,,,1,Gutleutviertel,151,1.04,1,Gallus,4.0,60327
Marienstraße 60329 Frankfurt,50.1122054,8.6692739,1666,Marienstraße,,,,,,1,Bahnhofsviertel,90,1.03,1,Gallus,4.0,60329
Zimmerweg 60325 Frankfurt,50.1127494,8.665496,2567,Zimmerweg,,,,,,2,Westend-Süd,100,2.11,2,Bockenheim,13.0,60325
Hochschildstraße 60435 Frankfurt,50.1459435,8.694177,1181,Hochschildstraße,,,,,,10,Preungesheim,470,10.73,10,Dornbusch,12.0,60435
Theodor-Thomas-Straße 60437 Frankfurt,50.1865662,8.6647989,2347,Theodor-Thomas-Straße,,,,,,10,Bonames,491,10.7,10,Nord,14.0,60437
Nedergäßchen 60316 Frankfurt,50.1211199,8.6982545,1772,Nedergäßchen,,,,,,3,Nordend-Ost,230,3.2,3,Ost,3.0,60316
Stieglitzenweg 65929 Frankfurt,50.1041675,8.5330946,2304,Stieglitzenweg,,,,,,6,Unterliederbach,621,6.51,6C,Höchst,17.0,65929
Helmholtzstraße 60385 Frankfurt,50.119439,8.7071082,1136,Helmholtzstraße,,,,,,4,Ostend,252,4.25,4,Ost,5.0,60385
Howaldtstraße 60314 Frankfurt,50.1115546,8.7023505,1228,Howaldtstraße,,,,,,4,Ostend,261,4.27,4,Ost,5.0,60314
Am Poloplatz 60528 Frankfurt,50.07466855,8.640262251629629,2628,Am Poloplatz,,,,,,5,Niederrad,373,5.36,5B,Sachsenhausen,10.0,60528
Barbarossastraße 60388 Frankfurt,50.1448602,8.7535788,2858,Barbarossastraße,,,,,,16,Bergen-Enkheim,680,16.83,16,Ost,18.0,60388
Hasengasse 60313 Frankfurt,50.1146843,8.68347,1090,Hasengasse,gerade,12,,,,1,Altstadt,10,1.01,1,Ost,1.0,60313
Bettinaplatz 60325 Frankfurt,50.1139073,8.6569039,418,Bettinaplatz,,,,,,2,Westend-Süd,170,2.11,2,Bockenheim,13.0,60325
Deidesheimer Straße 60529 Frankfurt,50.0869674,8.5749141,3210,Deidesheimer Straße,,,,,,6,Schwanheim,531,6.38,6A,Sachsenhausen,10.0,60529
Sonnentaustraße 60433 Frankfurt,50.1656657,8.6823655,3368,Sonnentaustraße,,,,,,10,Frankfurter Berg,492,10.71,10,Nord,14.0,60433
Quellenstraße 60437 Frankfurt,50.1842585,8.6961459,2727,Quellenstraße,,,,,,14,Harheim,660,14.81,14,Nord,14.0,60437
Klingenberger Straße 60599 Frankfurt,50.0961058,8.697865,1449,Klingenberger Straße,,,,,,5,Sachsenhausen-S.,332,5.29,5A,Sachsenhausen,8.0,60599
Rasselweg 65931 Frankfurt,50.0978157,8.5025226,1962,Rasselweg,,,,,,6,Zeilsheim,612,6.5,6B,Höchst,17.0,65931
Liesel-Christ-Anlage 60322 Frankfurt,50.11636065,8.671408044417388,3253,Liesel-Christ-Anlage,,,,,,1,Innenstadt,50,1.02,1,Ost,1.0,60322
Neue Niedenau 60325 Frankfurt,50.1114333,8.6628265,3190,Neue Niedenau,,,,,,2,Westend-Süd,100,2.11,2,Bockenheim,13.0,60325
Erbbaustraße 60326 Frankfurt,50.1015189,8.6212381,742,Erbbaustraße,,,,,,1,Gallus,164,1.08,1,Gallus,16.0,60326
Prager Straße 60437 Frankfurt,50.1989553,8.6708944,2777,Prager Straße,,,,,,15,Nieder-Eschbach,670,15.82,15,Nord,14.0,60437
Goetzstraße 60386 Frankfurt,50.1257965,8.7662129,958,Goetzstraße,,,,,,11,Fechenheim,510,11.77,11,Ost,18.0,60386
Robert-Gernhardt-Brücke 60437 Frankfurt,50.1766982,8.660905,3518,Robert-Gernhardt-Brücke,,,,,,12,Kalbach-Riedberg,650,12.79,12,Nord,14.0,60437
Kamelienstraße 65929 Frankfurt,50.1058333,8.5282889,3624,Kamelienstraße,,,,,,6,Unterliederbach,623,6.51,6C,Höchst,17.0,65929
Bürgeler Straße 60386 Frankfurt,50.1176225,8.7730855,530,Bürgeler Straße,,,,,,11,Fechenheim,520,11.78,11,Ost,18.0,60386
August-Siebert-Straße 60323 Frankfurt,50.1235367,8.664655,310,August-Siebert-Straße,,,,,,2,Westend-Nord,191,2.09,2,Dornbusch,3.0,60323
Ottostraße 60329 Frankfurt,50.1077297,8.6608161,1884,Ottostraße,,,,,,1,Gallus,152,1.06,1,Gallus,4.0,60329
Kätcheslachpark 60438 Frankfurt,50.18081525,8.632037377411104,3471,Kätcheslachpark,,,,,,12,Kalbach-Riedberg,651,12.79,12,Nord,14.0,60438
Am Roten Graben 60386 Frankfurt,50.1390089,8.7756341,170,Am Roten Graben,,,,,,11,Fechenheim,510,11.77,11,Ost,18.0,60386
Julius-Heyman-Straße 60316 Frankfurt,50.1174969,8.6946526,1338,Julius-Heyman-Straße,,,,,,3,Nordend-Ost,130,3.2,3,Ost,3.0,60316
Grillparzerstraße 60320 Frankfurt,50.1421428,8.6667891,987,Grillparzerstraße,,,,,,9,Dornbusch,442,9.68,9,Dornbusch,12.0,60320
Blauglockenweg 65929 Frankfurt,50.1134447,8.5481981,3296,Blauglockenweg,ungerade,,,,,6,Höchst,570,6.44,6C,Höchst,17.0,65929
Kaltmühle 60439 Frankfurt,50.1675063,8.645758,1354,Kaltmühle,ungerade,,,,,8,Niederursel,483,8.63,8,Nord,14.0,60439
Osthafenbrücke 60314 Frankfurt,50.1072267,8.7113528,3652,Osthafenbrücke,,,,,,4,Ostend,261,4.27,4,Ost,5.0,60314
Blütenweg 65929 Frankfurt,50.1140074,8.5480249,3294,Blütenweg,ungerade,,,,,6,Höchst,570,6.44,6C,Höchst,17.0,65929
Untermainkai 60311 Frankfurt,50.1075165,8.6756603,2398,Untermainkai,ungerade,1,,5,,1,Altstadt,10,1.01,1,Ost,1.0,60311
Edisonstraße 60388 Frankfurt,50.142298,8.7443935,2868,Edisonstraße,,,,,,16,Bergen-Enkheim,680,16.83,16,Ost,18.0,60388
Emsdorfer Straße 60433 Frankfurt,50.1559684,8.6687558,729,Emsdorfer Straße,,,,,,9,Eschersheim,452,9.66,9,Dornbusch,12.0,60433
Christiane-Vulpius-Straße 60438 Frankfurt,50.1792777,8.6390715,3408,Christiane-Vulpius-Straße,,,,,,12,Kalbach-Riedberg,651,12.79,12,Nord,14.0,60438
Oppauer Weg 65931 Frankfurt,50.0957651,8.4924388,1866,Oppauer Weg,,,,,,6,Zeilsheim,611,6.49,6B,Höchst,17.0,65931
Jenaer Weg 65931 Frankfurt,50.0955505,8.4965528,1322,Jenaer Weg,,,,,,6,Zeilsheim,611,6.49,6B,Höchst,17.0,65931
Otto-Fleck-Schneise 60528 Frankfurt,50.0688419,8.6406601,1882,Otto-Fleck-Schneise,,,,,,5,Sachsenhausen-S.,325,5.34,5A,Sachsenhausen,10.0,60528
Mannheimer Straße 60327 Frankfurt,50.1024732,8.6557147,1656,Mannheimer Straße,ungerade,73,,119,,1,Gutleutviertel,151,1.04,1,Gallus,4.0,60327
Am Vogelherd 60388 Frankfurt,50.1540371,8.7521742,2848,Am Vogelherd,,,,,,16,Bergen-Enkheim,680,16.83,16,Ost,18.0,60388
Martin-Elsässer-Weg 60314 Frankfurt,50.111117,8.6986429,3276,Martin-Elsässer-Weg,,,,,,4,Ostend,140,4.26,4,Ost,5.0,60314
Barckhausstraße 60325 Frankfurt,50.1173747,8.6647297,375,Barckhausstraße,ungerade,,,,,2,Westend-Süd,100,2.11,2,Bockenheim,13.0,60325
Adam-Leis-Straße 60439 Frankfurt,50.1653278,8.6377026,3075,Adam-Leis-Straße,,,,,,8,Heddernheim,431,8.61,8,Nord,14.0,60439
Kirchhofsweg 60437 Frankfurt,50.1822962,8.665058,1414,Kirchhofsweg,,,,,,10,Bonames,491,10.7,10,Nord,14.0,60437
Reinganumstraße 60385 Frankfurt,50.1210706,8.7124482,1989,Reinganumstraße,,,,,,4,Ostend,252,4.25,4,Ost,5.0,60385
Oskar-Schindler-Straße 60437 Frankfurt,50.1879763,8.6654851,2931,Oskar-Schindler-Straße,,,,,,15,Nieder-Eschbach,670,15.82,15,Nord,14.0,60437
Im Geiersrain 60435 Frankfurt,50.1731801,8.6951556,2798,Im Geiersrain,,,,,,10,Berkersheim,500,10.74,10,Nord,14.0,60435
Händelstraße 60318 Frankfurt,50.1310448,8.6860166,1042,Händelstraße,,,,,,3,Nordend-West,212,3.17,3,Ost,3.0,60318
Enge Gasse 60433 Frankfurt,50.1606372,8.6550398,732,Enge Gasse,,,,,,9,Eschersheim,451,9.65,9,Dornbusch,12.0,60433
Wiesenhüttenstraße 60329 Frankfurt,50.106188,8.6654464,2509,Wiesenhüttenstraße,ungerade,,,,,1,Gutleutviertel,151,1.04,1,Gallus,4.0,60329
Ellerstraße 60389 Frankfurt,50.1439679,8.7255382,717,Ellerstraße,,,,,,11,Seckbach,390,11.75,11,Ost,6.0,60389
Untermainkai 60329 Frankfurt,50.1034771,8.6684216,2398,Untermainkai,ungerade,17,,,,1,Innenstadt,40,1.03,1,Ost,1.0,60329
Frankenallee 60327 Frankfurt,50.1072778,8.6507872,838,Frankenallee,ungerade,23,,99,,1,Gallus,161,1.06,1,Gallus,4.0,60327
Altenhainer Straße 60326 Frankfurt,50.1065512,8.6324143,3649,Altenhainer Straße,,,,,,1,Gallus,162,1.07,1,Gallus,4.0,60326
Frida-Amram-Weg 60438 Frankfurt,50.1827844,8.6262852,3750,Frida-Amram-Weg,,,,,,12,Kalbach-Riedberg,651,12.79,12,Nord,14.0,60438
Carl-Zeiss-Straße 60388 Frankfurt,50.1419286,8.7454746,2865,Carl-Zeiss-Straße,,,,,,16,Bergen-Enkheim,680,16.83,16,Ost,18.0,60388
Immermannstraße 60431 Frankfurt,50.1390208,8.6626136,1269,Immermannstraße,,,,,,9,Dornbusch,442,9.68,9,Dornbusch,12.0,60431
Römerstadtsteg 60439 Frankfurt,50.1559263,8.6344592,2590,Römerstadtsteg,,,,,,8,Heddernheim,432,8.62,8,Nord,14.0,60439
Adolph-von-Holzhausen-Park 60322 Frankfurt,50.1262135,8.678283396307211,16,Adolph-von-Holzhausen-Park,,,,,,3,Nordend-West,203,3.16,3,Dornbusch,3.0,60322
Nibelungenplatz 60318 Frankfurt,50.1288527,8.692244134258729,1796,Nibelungenplatz,,,,,,3,Nordend-West,212,3.17,3,Ost,3.0,60318
Donnersbergstraße 60528 Frankfurt,50.0877437,8.6353421,656,Donnersbergstraße,,,,,,5,Niederrad,371,5.35,5B,Sachsenhausen,10.0,60528
Münsterer Straße 60326 Frankfurt,50.1036815,8.63396,1755,Münsterer Straße,,,,,,1,Gallus,162,1.07,1,Gallus,4.0,60326
Steinrutsch 65931 Frankfurt,50.0906768,8.4989633,2291,Steinrutsch,,,,,,6,Zeilsheim,611,6.49,6B,Höchst,17.0,65931
Matternstraße 60435 Frankfurt,50.1486183,8.6838368,1686,Matternstraße,,,,,,10,Eckenheim,461,10.72,10,Dornbusch,12.0,60435
Leo-Gans-Straße 60386 Frankfurt,50.124292,8.7618315,1565,Leo-Gans-Straße,ungerade,1,,49,,11,Fechenheim,510,11.77,11,Ost,18.0,60386
Jacobystraße 60385 Frankfurt,50.1195703,8.7155763,1312,Jacobystraße,,,,,,4,Ostend,252,4.25,4,Ost,5.0,60385
Alt-Harheim 60437 Frankfurt,50.1825147,8.6929832,2706,Alt-Harheim,,,,,,14,Harheim,660,14.81,14,Nord,14.0,60437
Trajanstraße 60439 Frankfurt,50.1595624,8.6399917,2369,Trajanstraße,,,,,,8,Heddernheim,432,8.62,8,Nord,14.0,60439
Nordendstraße 60318 Frankfurt,50.1293915,8.6918411,1824,Nordendstraße,,,,,,3,Nordend-West,212,3.17,3,Ost,3.0,60318
Huthmacherstraße 65931 Frankfurt,50.0801482,8.5185865,1243,Huthmacherstraße,,,,,,6,Sindlingen,601,6.47,6B,Höchst,17.0,65931
Heiligenstockweg 60435 Frankfurt,50.1697425,8.7027439,1116,Heiligenstockweg,,,,,,10,Berkersheim,500,10.74,10,Nord,14.0,60435
Tagetesweg 60433 Frankfurt,50.1657684,8.6855814,3378,Tagetesweg,,,,,,10,Frankfurter Berg,492,10.71,10,Nord,14.0,60433
Akazienstraße 65933 Frankfurt,50.0989199,8.6008373,21,Akazienstraße,,,,,,6,Griesheim,552,6.41,6A,Gallus,16.0,65933
Selma-Lagerlöf-Straße 60431 Frankfurt,50.1447697,8.6612338,2222,Selma-Lagerlöf-Straße,,,,,,9,Ginnheim,441,9.67,9,Nord,12.0,60431
Ostpreußenstraße 60388 Frankfurt,50.1459975,8.7580313,2903,Ostpreußenstraße,,,,,,16,Bergen-Enkheim,680,16.83,16,Ost,18.0,60388
Bodenbacher Weg 60598 Frankfurt,50.0853086,8.672297,456,Bodenbacher Weg,,,,,,5,Sachsenhausen-S.,326,5.34,5A,Sachsenhausen,8.0,60598
Komturstraße 60528 Frankfurt,50.0897571,8.6508006,1477,Komturstraße,,,,,,5,Niederrad,371,5.35,5B,Sachsenhausen,10.0,60528
Vilbeler Straße 60313 Frankfurt,50.1168852,8.6861374,2410,Vilbeler Straße,ungerade,,,,,1,Innenstadt,70,1.01,1,Ost,1.0,60313
An den Pappeln 60388 Frankfurt,50.1500605,8.7616493,2999,An den Pappeln,,,,,,16,Bergen-Enkheim,680,16.83,16,Ost,18.0,60388
Oeder Weg 60318 Frankfurt,50.1270443,8.6823944,1856,Oeder Weg,ungerade,1,,43,,3,Nordend-West,120,3.21,3,Ost,3.0,60318
Wehrhofstraße 60489 Frankfurt,50.1247023,8.6143655,2460,Wehrhofstraße,,,,,,7,Rödelheim,401,7.55,7,Bockenheim,11.0,60489
Erlenbacher Stadtweg 60437 Frankfurt,50.1857553,8.6871057,2649,Erlenbacher Stadtweg,ungerade,,,,,13,Nieder-Erlenbach,640,13.8,13,Nord,14.0,60437
Schlehenweg 60433 Frankfurt,50.1656824,8.6763856,2129,Schlehenweg,,,,,,10,Frankfurter Berg,492,10.71,10,Nord,14.0,60433
Tilsiter Straße 60487 Frankfurt,50.1285287,8.6271656,2361,Tilsiter Straße,,,,,,7,Bockenheim,343,7.57,2,Bockenheim,11.0,60487
Eberstadtstraße 60488 Frankfurt,50.1454442,8.6123797,683,Eberstadtstraße,,,,,,7,Praunheim,422,7.59,7,Bockenheim,14.0,60488
Hardenbergstraße 60327 Frankfurt,50.1011949,8.6583896,1082,Hardenbergstraße,,,,,,1,Gutleutviertel,151,1.04,1,Gallus,4.0,60327
Walter-Weisbecker-Weg 60431 Frankfurt,50.1419586,8.661446,3760,Walter-Weisbecker-Weg,,,,,,9,Ginnheim,441,9.67,9,Nord,12.0,60431
Im Sperber 60388 Frankfurt,50.1545357,8.7537279,2887,Im Sperber,,,,,,16,Bergen-Enkheim,680,16.83,16,Ost,18.0,60388
Martin-Weber-Platz 60385 Frankfurt,50.12688369999999,8.718099712153764,3353,Martin-Weber-Platz,,,,,,4,Bornheim,281,4.24,4,Ost,6.0,60385
Gontardstraße 60488 Frankfurt,50.1329932,8.6058193,3289,Gontardstraße,,,,,,7,Praunheim,423,7.59,7,Bockenheim,11.0,60488
Bielefelder Straße 65931 Frankfurt,50.0961793,8.503714,426,Bielefelder Straße,ungerade,1,,35,,6,Zeilsheim,611,6.49,6B,Höchst,17.0,65931
Brandenburger Weg 60437 Frankfurt,50.2053659,8.7064179,2647,Brandenburger Weg,,,,,,13,Nieder-Erlenbach,640,13.8,13,Nord,14.0,60437
Sigmund-Freud-Straße 60435 Frankfurt,50.1552119,8.6860901,2231,Sigmund-Freud-Straße,,,,,,10,Eckenheim,461,10.72,10,Dornbusch,12.0,60435
Sindlinger Straße 60326 Frankfurt,50.1043149,8.6368406,2240,Sindlinger Straße,,,,,,1,Gallus,162,1.07,1,Gallus,4.0,60326
Malvenweg 60433 Frankfurt,50.1671594,8.6814364,3369,Malvenweg,,,,,,10,Frankfurter Berg,492,10.71,10,Nord,14.0,60433
Belchenstraße 60528 Frankfurt,50.0866415,8.6455499,392,Belchenstraße,,,,,,5,Niederrad,371,5.35,5B,Sachsenhausen,10.0,60528
Am Hasensprung 60437 Frankfurt,50.1852486,8.637313,2672,Am Hasensprung,,,,,,12,Kalbach-Riedberg,650,12.79,12,Nord,14.0,60437
Ginnheimer Straße 60487 Frankfurt,50.1265343,8.6398397,944,Ginnheimer Straße,,,,,,2,Bockenheim,362,2.12,2,Bockenheim,13.0,60487
Antoninusstraße 60439 Frankfurt,50.1577923,8.6414665,264,Antoninusstraße,ungerade,5,,37,,8,Heddernheim,431,8.61,8,Nord,14.0,60439
Feuerwehrstraße 60435 Frankfurt,50.1465659,8.6900483,3310,Feuerwehrstraße,,,,,,10,Eckenheim,461,10.72,10,Dornbusch,12.0,60435
Holbeinsteg 60596 Frankfurt,50.104799,8.6708819,3168,Holbeinsteg,,,,,,5,Sachsenhausen-N.,321,5.32,5A,Sachsenhausen,4.0,60596
Hermann-Mäckler-Ring 60438 Frankfurt,50.1735141,8.6246349,3679,Hermann-Mäckler-Ring,,,,,,12,Kalbach-Riedberg,651,12.79,12,Nord,14.0,60438
Oelmühlgasse 60489 Frankfurt,50.1247023,8.6143655,1857,Oelmühlgasse,,,,,,7,Rödelheim,401,7.55,7,Bockenheim,11.0,60489
Karbener Straße 60385 Frankfurt,50.13441,8.7142954,1361,Karbener Straße,,,,,,4,Bornheim,272,4.22,4,Ost,6.0,60385
Kostheimer Straße 60326 Frankfurt,50.1028428,8.6406283,1487,Kostheimer Straße,,,,,,1,Gallus,162,1.07,1,Gallus,4.0,60326
Am Tiergarten 60316 Frankfurt,50.1145178,8.7026883,195,Am Tiergarten,,,,,,4,Ostend,251,4.25,4,Ost,5.0,60316
Zur Obermühle 60437 Frankfurt,50.2037282,8.7101618,2668,Zur Obermühle,,,,,,13,Nieder-Erlenbach,640,13.8,13,Nord,14.0,60437
Merianstraße 60316 Frankfurt,50.1216441,8.6929537,1716,Merianstraße,,,,,,3,Nordend-Ost,130,3.2,3,Ost,3.0,60316
Ludwig-Rehn-Straße 60596 Frankfurt,50.0966964,8.6656098,1622,Ludwig-Rehn-Straße,,,,,,5,Sachsenhausen-N.,322,5.33,5A,Sachsenhausen,8.0,60596
Orber Straße 60386 Frankfurt,50.1319483,8.7590493,1871,Orber Straße,,,,,,11,Fechenheim,510,11.77,11,Ost,18.0,60386
Am Hauptbahnhof 60329 Frankfurt,50.1071922,8.6653033,120,Am Hauptbahnhof,ungerade,,,,,1,Gallus,152,1.06,1,Gallus,4.0,60329
Heinrich-Lanz-Allee 60437 Frankfurt,50.1903435,8.6528866,3458,Heinrich-Lanz-Allee,,,,,,12,Kalbach-Riedberg,650,12.79,12,Nord,14.0,60437
Flusskrebssteg 60327 Frankfurt,50.0984221,8.6592447,3429,Flusskrebssteg,,,,,,1,Gutleutviertel,151,1.04,1,Gallus,4.0,60327
Hans-Böckler-Straße 65929 Frankfurt,50.1140586,8.5345683,1076,Hans-Böckler-Straße,,,,,,6,Unterliederbach,621,6.51,6C,Höchst,17.0,65929
Herbert-Boehm-Straße 60528 Frankfurt,50.0819198,8.6432441,1144,Herbert-Boehm-Straße,,,,,,5,Niederrad,372,5.36,5B,Sachsenhausen,10.0,60528
An der Lühe 60488 Frankfurt,50.1375999,8.6243511,2608,An der Lühe,,,,,,7,Hausen,410,7.58,7,Bockenheim,11.0,60488
Hattsteiner Straße 60489 Frankfurt,50.1298378,8.6158226,1093,Hattsteiner Straße,,,,,,7,Rödelheim,401,7.55,7,Bockenheim,11.0,60489
Bleichstraße 60313 Frankfurt,50.1173765,8.6814112,446,Bleichstraße,,,,,,1,Innenstadt,60,1.02,1,Ost,1.0,60313
Limpurgergasse 60311 Frankfurt,50.1099582,8.6799776,1592,Limpurgergasse,,,,,,1,Altstadt,10,1.01,1,Ost,1.0,60311
Im Dinkelfeld 60388 Frankfurt,50.158385,8.7631255,3287,Im Dinkelfeld,,,,,,16,Bergen-Enkheim,680,16.83,16,Ost,18.0,60388
Kleiner Hirschgraben 60311 Frankfurt,50.1121941,8.6787921,1441,Kleiner Hirschgraben,ungerade,,,,,1,Altstadt,10,1.01,1,Ost,1.0,60311
Insterburger Straße 60487 Frankfurt,50.1268274,8.625984,1308,Insterburger Straße,,,,,,7,Bockenheim,343,7.57,2,Bockenheim,11.0,60487
Danneckerstraße 60594 Frankfurt,50.1035946,8.6844396,617,Danneckerstraße,,,,,,5,Sachsenhausen-N.,324,5.32,5A,Sachsenhausen,8.0,60594
Hinterm Hain 60437 Frankfurt,50.2013205,8.708989,2651,Hinterm Hain,,,,,,13,Nieder-Erlenbach,640,13.8,13,Nord,14.0,60437
Melli-Beese-Straße 60486 Frankfurt,50.1128217,8.627185,3444,Melli-Beese-Straße,,,,,,2,Bockenheim,163,2.15,2,Bockenheim,13.0,60486
Am Eichbaum 60437 Frankfurt,50.20201,8.7150601,2640,Am Eichbaum,,,,,,13,Nieder-Erlenbach,640,13.8,13,Nord,14.0,60437
Lohrpark 60389 Frankfurt,50.1506973,8.729325247182611,3719,Lohrpark,,,,,,11,Seckbach,390,11.75,11,Ost,6.0,60389
Breulsweg 60599 Frankfurt,50.0977435,8.7058182,503,Breulsweg,,,,,,5,Sachsenhausen-S.,332,5.29,5A,Sachsenhausen,8.0,60599
Liebigstraße 60323 Frankfurt,50.1215586,8.6652754,1584,Liebigstraße,ungerade,3,,11,,2,Westend-Süd,110,2.1,2,Bockenheim,3.0,60323
Ziegelhüttenweg 60598 Frankfurt,50.09092,8.6793518,2564,Ziegelhüttenweg,ungerade,1,,49,,5,Sachsenhausen-S.,323,5.3,5A,Sachsenhausen,8.0,60598
Breitenbachstraße 60487 Frankfurt,50.1260039,8.6327888,493,Breitenbachstraße,,,,,,7,Bockenheim,343,7.57,2,Bockenheim,11.0,60487
Auf der Steinritz 60437 Frankfurt,50.2099866,8.7004701,2829,Auf der Steinritz,,,,,,13,Nieder-Erlenbach,640,13.8,13,Nord,14.0,60437
Fichtestraße 60316 Frankfurt,50.1174564,8.6922622,798,Fichtestraße,,,,,,3,Nordend-Ost,130,3.2,3,Ost,3.0,60316
Nibelungenallee 60318 Frankfurt,50.1308534,8.6865169,1795,Nibelungenallee,,,,,,3,Nordend-West,212,3.17,3,Ost,3.0,60318
Friedrich-Bergius-Weg 60438 Frankfurt,50.1778641,8.6236219,3572,Friedrich-Bergius-Weg,,,,,,12,Kalbach-Riedberg,651,12.79,12,Nord,14.0,60438
Florastraße 60487 Frankfurt,50.1254433,8.6401223,817,Florastraße,ungerade,1,,15,,2,Bockenheim,361,2.12,2,Bockenheim,13.0,60487
Wehrheimer Straße 60389 Frankfurt,50.1307282,8.7068249,2459,Wehrheimer Straße,,,,,,4,Bornheim,271,4.23,4,Ost,6.0,60389
Valentin-Schmetzer-Weg 60438 Frankfurt,50.1842606,8.6248296,3647,Valentin-Schmetzer-Weg,,,,,,12,Kalbach-Riedberg,651,12.79,12,Nord,14.0,60438
Kiebitzpfad 65933 Frankfurt,50.1029186,8.5892334,1406,Kiebitzpfad,,,,,,6,Griesheim,552,6.41,6A,Gallus,16.0,65933
Am Höllsteg 60437 Frankfurt,50.2070479,8.7092061,3006,Am Höllsteg,,,,,,13,Nieder-Erlenbach,640,13.8,13,Nord,14.0,60437
Berberitzenweg 60433 Frankfurt,50.1673187,8.6870112,3581,Berberitzenweg,gerade,2,,,,10,Frankfurter Berg,492,10.71,10,Nord,14.0,60433
Wolfsgangstraße 60323 Frankfurt,50.1229894,8.6663231,2543,Wolfsgangstraße,gerade,160,,,,2,Westend-Nord,191,2.09,2,Dornbusch,3.0,60323
Lohrgasse 60389 Frankfurt,50.1462353,8.7279129,1610,Lohrgasse,,,,,,11,Seckbach,390,11.75,11,Ost,6.0,60389
Florianweg 60388 Frankfurt,50.1488871,8.7536848,2871,Florianweg,,,,,,16,Bergen-Enkheim,680,16.83,16,Ost,18.0,60388
Cäsar-von-Hofacker-Straße 60438 Frankfurt,50.1802523,8.6224798,3534,Cäsar-von-Hofacker-Straße,,,,,,12,Kalbach-Riedberg,651,12.79,12,Nord,14.0,60438
Eiserner Steg 60594 Frankfurt,50.1080532,8.682139074311543,709,Eiserner Steg,,,,,,5,Sachsenhausen-N.,300,5.31,5A,Sachsenhausen,8.0,60594
Am Mainplacken 65934 Frankfurt,50.0983745,8.571382,149,Am Mainplacken,,,,,,6,Nied,561,6.42,6A,Höchst,16.0,65934
Bert-Brecht-Straße 60437 Frankfurt,50.2058141,8.6674472,2742,Bert-Brecht-Straße,,,,,,15,Nieder-Eschbach,670,15.82,15,Nord,14.0,60437
Strahlenberger Weg 60599 Frankfurt,50.1017173,8.710949,2311,Strahlenberger Weg,,,,,,5,Sachsenhausen-N.,331,5.31,5A,Sachsenhausen,8.0,60599
Rahmhofstraße 60313 Frankfurt,50.1155834,8.6785528,1957,Rahmhofstraße,,,,,,1,Innenstadt,50,1.02,1,Ost,1.0,60313
Müllerstraße 60486 Frankfurt,50.1124677,8.630039,1752,Müllerstraße,,,,,,2,Bockenheim,163,2.15,2,Bockenheim,13.0,60486
Klitscherstraße 60318 Frankfurt,50.1206192,8.684945,1452,Klitscherstraße,,,,,,3,Nordend-West,120,3.21,3,Ost,3.0,60318
Kohlbrandstraße 60385 Frankfurt,50.1347958,8.7161359,1471,Kohlbrandstraße,,,,,,4,Bornheim,290,4.22,4,Ost,6.0,60385
Bornweg 60437 Frankfurt,50.2020239,8.7088604,2646,Bornweg,,,,,,13,Nieder-Erlenbach,640,13.8,13,Nord,14.0,60437
Hofgartenweg 60389 Frankfurt,50.1447076,8.7208956,1198,Hofgartenweg,,,,,,11,Seckbach,390,11.75,11,Ost,6.0,60389
Zeuläckerstraße 60389 Frankfurt,50.1396826,8.7236265,2561,Zeuläckerstraße,,,,,,11,Seckbach,390,11.75,11,Ost,6.0,60389
Am Galgenberg 60389 Frankfurt,50.1372349,8.7140444,3307,Am Galgenberg,,,,,,4,Bornheim,272,4.22,4,Ost,6.0,60389
Wilhelm-Beckel-Straße 65936 Frankfurt,50.1151248,8.5553148,3183,Wilhelm-Beckel-Straße,,,,,,6,Sossenheim,631,6.53,6C,Höchst,17.0,65936
Limescorso 60439 Frankfurt,50.157817,8.6333754,2585,Limescorso,,,,,,8,Heddernheim,432,8.62,8,Nord,14.0,60439
Erna-Pinner-Straße 60438 Frankfurt,50.1793353,8.6343189,3513,Erna-Pinner-Straße,,,,,,12,Kalbach-Riedberg,651,12.79,12,Nord,14.0,60438
Schellingstraße 60316 Frankfurt,50.1213997,8.6994818,2117,Schellingstraße,,,,,,3,Nordend-Ost,230,3.2,3,Ost,3.0,60316
Flößerbrücke 60594 Frankfurt,50.1068831,8.6951173,815,Flößerbrücke,,,,,,5,Sachsenhausen-N.,331,5.31,5A,Sachsenhausen,8.0,60594
Bernadottestraße 60439 Frankfurt,50.1567019,8.6318902,406,Bernadottestraße,ungerade,,,,,8,Heddernheim,432,8.62,8,Nord,14.0,60439
Scheerengasse 60599 Frankfurt,50.0990121,8.7164336,2111,Scheerengasse,,,,,,5,Oberrad,380,5.28,5A,Sachsenhausen,8.0,60599
Schmickbrücke 60314 Frankfurt,50.1084936,8.7144224,2147,Schmickbrücke,,,,,,4,Ostend,261,4.27,4,Ost,5.0,60314
Spielsgasse 60439 Frankfurt,50.1695288,8.6219762,2268,Spielsgasse,,,,,,8,Niederursel,481,8.63,8,Nord,14.0,60439
Bettinastraße 60325 Frankfurt,50.1104065,8.6604564,419,Bettinastraße,ungerade,,,,,2,Westend-Süd,170,2.11,2,Bockenheim,13.0,60325
de-Neufville-Straße 60599 Frankfurt,50.0983484,8.725458,624,de-Neufville-Straße,,,,,,5,Oberrad,380,5.28,5A,Sachsenhausen,8.0,60599
Parrotweg 60486 Frankfurt,50.1136927,8.628697,1896,Parrotweg,,,,,,2,Bockenheim,163,2.15,2,Bockenheim,13.0,60486
Kalbacher Kerbeplatz 60437 Frankfurt,50.18703345,8.636799277420295,3765,Kalbacher Kerbeplatz,,,,,,12,Kalbach-Riedberg,650,12.79,12,Nord,14.0,60437
Matthias-Beltz-Platz 60318 Frankfurt,50.12579805,8.691657118127502,3686,Matthias-Beltz-Platz,,,,,,3,Nordend-West,211,3.19,3,Ost,3.0,60318
Bodenseestraße 60386 Frankfurt,50.124459,8.7672562,457,Bodenseestraße,,,,,,11,Fechenheim,510,11.77,11,Ost,18.0,60386
Höchster Bahnstraße 65929 Frankfurt,50.1034312,8.5429429,1184,Höchster Bahnstraße,,,,,,6,Höchst,570,6.44,6C,Höchst,17.0,65929
Untere Burggasse 60437 Frankfurt,50.2026681,8.711245,2664,Untere Burggasse,,,,,,13,Nieder-Erlenbach,640,13.8,13,Nord,14.0,60437
Im Geeren 60433 Frankfurt,50.1615594,8.664921,3333,Im Geeren,,,,,,9,Eschersheim,451,9.65,9,Dornbusch,12.0,60433
Hugo-Sinzheimer-Straße 60437 Frankfurt,50.1871231,8.666898077272041,1235,Hugo-Sinzheimer-Straße,,,,,,10,Bonames,491,10.7,10,Nord,14.0,60437
Meisengasse 60313 Frankfurt,50.1154353,8.6759185,1707,Meisengasse,,,,,,1,Innenstadt,50,1.02,1,Ost,1.0,60313
Mockstädter Straße 65931 Frankfurt,50.074139,8.5165958,3309,Mockstädter Straße,,,,,,6,Sindlingen,601,6.47,6B,Höchst,17.0,65931
Bingelsweg 65933 Frankfurt,50.1011233,8.600163,431,Bingelsweg,ungerade,,,,,6,Griesheim,542,6.4,6A,Gallus,16.0,65933
Kleine Wiesenau 60323 Frankfurt,50.119907,8.6628602,1440,Kleine Wiesenau,,,,,,2,Westend-Süd,180,2.1,2,Bockenheim,3.0,60323
Im Eichwäldchen 60488 Frankfurt,50.1370988,8.6221046,1258,Im Eichwäldchen,,,,,,7,Hausen,410,7.58,7,Bockenheim,11.0,60488
Siegener Straße 65936 Frankfurt,50.1224619,8.5662888,2227,Siegener Straße,ungerade,,,,,6,Sossenheim,631,6.53,6C,Höchst,17.0,65936
Alt-Niedereschbach 60437 Frankfurt,50.2011514,8.6738774,2753,Alt-Niedereschbach,,,,,,15,Nieder-Eschbach,670,15.82,15,Nord,14.0,60437
Alkmenestraße 60435 Frankfurt,50.1518239,8.698589614309213,3391,Alkmenestraße,,,,,,10,Preungesheim,470,10.73,10,Dornbusch,12.0,60435
Julius-Brecht-Straße 60433 Frankfurt,50.1681355,8.6811435,1337,Julius-Brecht-Straße,,,,,,10,Frankfurter Berg,492,10.71,10,Nord,14.0,60433
Fischerfeldstraße 60311 Frankfurt,50.1104438,8.6895182,803,Fischerfeldstraße,,,,,,1,Innenstadt,80,1.01,1,Ost,1.0,60311
Zwingergasse 60313 Frankfurt,50.1160815,8.6764175,2578,Zwingergasse,,,,,,1,Innenstadt,50,1.02,1,Ost,1.0,60313
Taufsteinweg 60435 Frankfurt,50.1513497,8.6858324,2328,Taufsteinweg,,,,,,10,Eckenheim,461,10.72,10,Dornbusch,12.0,60435
Neu-Zeilsheim 65931 Frankfurt,50.0977855,8.4925688,1794,Neu-Zeilsheim,ungerade,1,,17a,a,6,Zeilsheim,612,6.5,6B,Höchst,17.0,65931
Ferdinand-Braun-Straße 60438 Frankfurt,50.1754459,8.6307294,3396,Ferdinand-Braun-Straße,,,,,,8,Niederursel,484,8.63,8,Nord,14.0,60438
Marxheimer Straße 60326 Frankfurt,50.1008463,8.6197602,1681,Marxheimer Straße,,,,,,1,Gallus,164,1.08,1,Gallus,16.0,60326
Oberlindau 60322 Frankfurt,50.1206587,8.6685455,1837,Oberlindau,ungerade,95,,119,,2,Westend-Nord,191,2.09,2,Dornbusch,3.0,60322
Kransberger Weg 60439 Frankfurt,50.15631,8.6279422,1492,Kransberger Weg,,,,,,8,Praunheim,426,8.62,7,Nord,14.0,60439
Schwalbacher Straße 60326 Frankfurt,50.1038676,8.6360289,2186,Schwalbacher Straße,ungerade,5,,27,,1,Gallus,153,1.05,1,Gallus,4.0,60326
Unter den Eschen 60596 Frankfurt,50.0915281,8.6711873,2388,Unter den Eschen,,,,,,5,Sachsenhausen-N.,322,5.33,5A,Sachsenhausen,8.0,60596
Grüneburgweg 60322 Frankfurt,50.1217283,8.6758052,1006,Grüneburgweg,ungerade,1,,43,,2,Westend-Süd,110,2.1,2,Bockenheim,3.0,60322
Feldscheidenstraße 60435 Frankfurt,50.1462945,8.68287,788,Feldscheidenstraße,,,,,,10,Eckenheim,461,10.72,10,Dornbusch,12.0,60435
Bickenbacher Weg 60529 Frankfurt,50.0796762,8.5992962,2968,Bickenbacher Weg,,,,,,6,Schwanheim,532,6.37,6A,Sachsenhausen,10.0,60529
Weberstraße 60318 Frankfurt,50.1238047,8.6877571,2454,Weberstraße,ungerade,1,,15,,3,Nordend-West,120,3.21,3,Ost,3.0,60318
Rudolf-Amthauer-Straße 65929 Frankfurt,50.0963086,8.5379968,3684,Rudolf-Amthauer-Straße,,,,,,6,Höchst,592,6.46,6C,Höchst,17.0,65929
Neumühlenweg 60439 Frankfurt,50.1658396,8.634116,3271,Neumühlenweg,,,,,,8,Heddernheim,431,8.61,8,Nord,14.0,60439
Im Wiesengarten 60435 Frankfurt,50.1721929,8.6944006,1286,Im Wiesengarten,,,,,,10,Berkersheim,500,10.74,10,Nord,14.0,60435
Max-Beckmann-Straße 60599 Frankfurt,50.086446,8.6959765,1691,Max-Beckmann-Straße,,,,,,5,Sachsenhausen-S.,332,5.29,5A,Sachsenhausen,8.0,60599
Margarete-Weber-Anlage 60433 Frankfurt,50.1623427,8.66438485492062,3597,Margarete-Weber-Anlage,,,,,,9,Eschersheim,451,9.65,9,Dornbusch,12.0,60433
Reichsburgstraße 60489 Frankfurt,50.1249217,8.6115038,1984,Reichsburgstraße,,,,,,7,Rödelheim,402,7.56,7,Bockenheim,11.0,60489
Nistergasse 60439 Frankfurt,50.1587034,8.6488695,1818,Nistergasse,,,,,,8,Heddernheim,431,8.61,8,Nord,14.0,60439
Jean-Monnet-Straße 60435 Frankfurt,50.1610022,8.6838659,3121,Jean-Monnet-Straße,,,,,,10,Eckenheim,461,10.72,10,Dornbusch,12.0,60435
Melibocusstraße 60528 Frankfurt,50.0861311,8.6381985,1711,Melibocusstraße,ungerade,11,,31,,5,Niederrad,371,5.35,5B,Sachsenhausen,10.0,60528
Harkortstraße 60386 Frankfurt,50.1284677,8.739582,1084,Harkortstraße,,,,,,11,Riederwald,262,11.76,11,Ost,18.0,60386
Lorscher Straße 60489 Frankfurt,50.1263416,8.6097553,1613,Lorscher Straße,ungerade,1,,41,,7,Rödelheim,402,7.56,7,Bockenheim,11.0,60489
Hörselbergstraße 65929 Frankfurt,50.1115487,8.5358166,1195,Hörselbergstraße,,,,,,6,Unterliederbach,621,6.51,6C,Höchst,17.0,65929
Usinger Straße 60389 Frankfurt,50.1303956,8.7061186,2403,Usinger Straße,,,,,,4,Bornheim,271,4.23,4,Ost,6.0,60389
Am Rötheneck 60385 Frankfurt,50.1323319,8.7115426,167,Am Rötheneck,,,,,,4,Bornheim,272,4.22,4,Ost,6.0,60385
Weidenbornstraße 60385 Frankfurt,50.130888,8.7099424,2463,Weidenbornstraße,ungerade,3,,11,,4,Bornheim,272,4.22,4,Ost,6.0,60385
Isenburger Schneise 60528 Frankfurt,50.0811467,8.6568607,1311,Isenburger Schneise,ungerade,,,,,5,Sachsenhausen-S.,325,5.34,5A,Sachsenhausen,10.0,60528
Thorwaldsenstraße 60596 Frankfurt,50.0982438,8.6767913,2354,Thorwaldsenstraße,,,,,,5,Sachsenhausen-N.,322,5.33,5A,Sachsenhausen,8.0,60596
Oskar-Sommer-Straße 60596 Frankfurt,50.0971046,8.6732311,1874,Oskar-Sommer-Straße,,,,,,5,Sachsenhausen-N.,322,5.33,5A,Sachsenhausen,8.0,60596
Heinrich-Stahl-Straße 65934 Frankfurt,50.1002956,8.5736909,1129,Heinrich-Stahl-Straße,,,,,,6,Nied,561,6.42,6A,Höchst,16.0,65934
Wilhelm-Fay-Straße 65936 Frankfurt,50.1233482,8.587964,2992,Wilhelm-Fay-Straße,,,,,,6,Sossenheim,632,6.54,6C,Höchst,17.0,65936
Ricky-Adler-Straße 60438 Frankfurt,50.1834993,8.6221707,3619,Ricky-Adler-Straße,,,,,,12,Kalbach-Riedberg,651,12.79,12,Nord,14.0,60438
Zum Schwalbenberg 60437 Frankfurt,50.2084114,8.7038698,3770,Zum Schwalbenberg,,,,,,13,Nieder-Erlenbach,640,13.8,13,Nord,14.0,60437
Crutzenkirchweg 60438 Frankfurt,50.1750592,8.6365598,3279,Crutzenkirchweg,,,,,,12,Kalbach-Riedberg,651,12.79,12,Nord,14.0,60438
Tornowstraße 60486 Frankfurt,50.1124684,8.6290638,2367,Tornowstraße,,,,,,2,Bockenheim,163,2.15,2,Bockenheim,13.0,60486
Gründenseestraße 60386 Frankfurt,50.1215382,8.7701566,1003,Gründenseestraße,,,,,,11,Fechenheim,520,11.78,11,Ost,18.0,60386
Hermann-Wendel-Straße 60486 Frankfurt,50.114715,8.6462091,1153,Hermann-Wendel-Straße,,,,,,2,Bockenheim,341,2.13,2,Bockenheim,13.0,60486
Jungstraße 60486 Frankfurt,50.118547,8.647356,1342,Jungstraße,,,,,,2,Bockenheim,341,2.13,2,Bockenheim,13.0,60486
Zeppelinpark 60486 Frankfurt,50.11057955,8.627618054882815,3703,Zeppelinpark,,,,,,2,Bockenheim,163,2.15,2,Bockenheim,13.0,60486
Westerwaldstraße 65936 Frankfurt,50.1210811,8.5645108,2493,Westerwaldstraße,ungerade,1,,13,,6,Sossenheim,632,6.54,6C,Höchst,17.0,65936
Felix-Dahn-Straße 60431 Frankfurt,50.1470645,8.6568383,789,Felix-Dahn-Straße,,,,,,9,Ginnheim,441,9.67,9,Nord,12.0,60431
Rohmerstraße 60487 Frankfurt,50.121848,8.6451147,2035,Rohmerstraße,ungerade,3,,,,2,Bockenheim,350,2.13,2,Bockenheim,13.0,60487
Im Heisenrath 60529 Frankfurt,50.0847529,8.6030095,2611,Im Heisenrath,,,,,,6,Schwanheim,532,6.37,6A,Sachsenhausen,10.0,60529
Leimenrode 60322 Frankfurt,50.1209883,8.6789448,1559,Leimenrode,,,,,,3,Nordend-West,120,3.21,3,Ost,3.0,60322
Eisenacher Weg 65931 Frankfurt,50.09578,8.5002796,706,Eisenacher Weg,,,,,,6,Zeilsheim,611,6.49,6B,Höchst,17.0,65931
Ludwig-Hensler-Straße 65929 Frankfurt,50.1112929,8.5275004,1620,Ludwig-Hensler-Straße,,,,,,6,Unterliederbach,621,6.51,6C,Höchst,17.0,65929
Johann-Sittig-Straße 65931 Frankfurt,50.0801207,8.5149513,1329,Johann-Sittig-Straße,,,,,,6,Sindlingen,601,6.47,6B,Höchst,17.0,65931
Lamboystraße 60598 Frankfurt,50.0912344,8.6806216,1533,Lamboystraße,,,,,,5,Sachsenhausen-S.,323,5.3,5A,Sachsenhausen,8.0,60598
Ratsweg 60386 Frankfurt,50.1225105,8.7277494,1966,Ratsweg,gerade,10,,,,11,Riederwald,262,11.76,11,Ost,18.0,60386
Schleusenweg 60528 Frankfurt,50.0897856,8.6501826,2136,Schleusenweg,,,,,,5,Niederrad,371,5.35,5B,Sachsenhausen,10.0,60528
Am Abtshof 60529 Frankfurt,50.0866,8.5812615,77,Am Abtshof,,,,,,6,Schwanheim,531,6.38,6A,Sachsenhausen,10.0,60529
Feststraße 60316 Frankfurt,50.1216441,8.6929537,794,Feststraße,,,,,,3,Nordend-Ost,130,3.2,3,Ost,3.0,60316
Georg-Heck-Weg 65934 Frankfurt,50.1061491,8.5842601,3165,Georg-Heck-Weg,,,,,,6,Nied,562,6.43,6A,Höchst,16.0,65934
