Address,Latitude,Longitude,Straßennummer,Straßenname,Folge,Hausnr. (von),Zusatz zur Hausnr (von),Hausnr. (bis),Zusatz zur Hausnr (bis),Ortsbezirk,Stadtteil Name,Stadtbezirk,Stadtbezirksvorst,Schiedsleutebezirk,Sozialrathaus Name,Polizeirevier,Postleitzahl,class,type
Boßstraße 60435 Frankfurt,50.1539261,8.6899734,481,Boßstraße,,,,,,10,Preungesheim,470,10.73,10,Dornbusch,12.0,60435,,
Letzter Hasenpfad 60598 Frankfurt,50.0927034,8.6833569,1574,Letzter Hasenpfad,,,,,,5,Sachsenhausen-S.,323,5.3,5A,Sachsenhausen,8.0,60598,highway,way
Mittelweg 60318 Frankfurt,50.1210834,8.6848074,1730,Mittelweg,,,,,,3,Nordend-West,120,3.21,3,Ost,3.0,60318,,
Brohltalstraße 60529 Frankfurt,50.0886719,8.5770049,506,Brohltalstraße,,,,,,6,Schwanheim,531,6.38,6A,Sachsenhausen,10.0,60529,,
Am Bienenstock 60388 Frankfurt,50.1554292,8.7585282,2839,Am Bienenstock,,,,,,16,Bergen-Enkheim,680,16.83,16,Ost,18.0,60388,highway,way
Mercatorstraße 60316 Frankfurt,50.1207991,8.689626,2617,Mercatorstraße,ungerade,,,,,3,Nordend-West,120,3.21,3,Ost,3.0,60316,,
Simon-Bolivar-Anlage 60322 Frankfurt,50.1228676,8.666555507499659,2235,Simon-Bolivar-Anlage,,,,,,2,Westend-Nord,191,2.09,2,Dornbusch,3.0,60322,,
Cézanneweg 60438 Frankfurt,50.1763951,8.6440558,3324,Cézanneweg,,,,,,12,Kalbach-Riedberg,651,12.79,12,Nord,14.0,60438,,
Bernusstraße 60487 Frankfurt,50.1265894,8.6459974,409,Bernusstraße,,,,,,2,Bockenheim,362,2.12,2,Bockenheim,13.0,60487,highway,way
Obermainanlage 60314 Frankfurt,50.1090122,8.6943508,1838,Obermainanlage,,,,,,4,Ostend,140,4.26,4,Ost,5.0,60314,highway,way
Kapersburgstraße 60437 Frankfurt,50.2038485,8.705114,2654,Kapersburgstraße,,,,,,13,Nieder-Erlenbach,640,13.8,13,Nord,14.0,60437,highway,way
Am Ohlenstück 60437 Frankfurt,50.2037126,8.7032808,2957,Am Ohlenstück,,,,,,13,Nieder-Erlenbach,640,13.8,13,Nord,14.0,60437,highway,way
Römerbrücke 60439 Frankfurt,50.1490834,8.6391362,3497,Römerbrücke,,,,,,8,Heddernheim,432,8.62,8,Nord,14.0,60439,,
Josef-Wirmer-Straße 60488 Frankfurt,50.136485,8.6080354,3038,Josef-Wirmer-Straße,,,,,,7,Praunheim,423,7.59,7,Bockenheim,11.0,60488,,
Walter-Kolb-Straße 60594 Frankfurt,50.1050459,8.6841484,2438,Walter-Kolb-Straße,ungerade,1,,13c,c,5,Sachsenhausen-N.,300,5.31,5A,Sachsenhausen,8.0,60594,highway,way
Am Bonifatiusbrunnen 60438 Frankfurt,50.1749502,8.6401116,3077,Am Bonifatiusbrunnen,,,,,,12,Kalbach-Riedberg,651,12.79,12,Nord,14.0,60438,,
Röderbergweg 60314 Frankfurt,50.1152913,8.7080531,2029,Röderbergweg,ungerade,9,,21,,4,Ostend,251,4.25,4,Ost,5.0,60314,,
Kleine Seestraße 60486 Frankfurt,50.1229282,8.6407317,1438,Kleine Seestraße,,,,,,2,Bockenheim,350,2.13,2,Bockenheim,13.0,60486,highway,way
Victor-Slotosch-Straße 60388 Frankfurt,50.1442703,8.7487997,2924,Victor-Slotosch-Straße,ungerade,1,,25,,16,Bergen-Enkheim,680,16.83,16,Ost,18.0,60388,,
Auerstraße 65929 Frankfurt,50.1054773,8.5514659,284,Auerstraße,,,,,,6,Höchst,580,6.45,6C,Höchst,17.0,65929,,
Nidacorso 60439 Frankfurt,50.1586951,8.6326549,2586,Nidacorso,,,,,,8,Heddernheim,432,8.62,8,Nord,14.0,60439,,
Kalbacher Stadtpfad 60437 Frankfurt,50.1861713,8.6391442,2696,Kalbacher Stadtpfad,,,,,,12,Kalbach-Riedberg,650,12.79,12,Nord,14.0,60437,,
Gebrüder-Wright-Straße 60486 Frankfurt,50.1135709,8.6258781,3436,Gebrüder-Wright-Straße,,,,,,2,Bockenheim,163,2.15,2,Bockenheim,13.0,60486,,
An den Geiselwiesen 60488 Frankfurt,50.1407864,8.6217756,217,An den Geiselwiesen,,,,,,7,Praunheim,424,7.6,7,Bockenheim,11.0,60488,,
Gärtnerweg 60322 Frankfurt,50.1190552,8.6738055,894,Gärtnerweg,,,,,,2,Westend-Süd,110,2.1,2,Bockenheim,3.0,60322,,
Kapitän-Lehmann-Straße 60549 Frankfurt,50.0546417,8.5866139,1359,Kapitän-Lehmann-Straße,,,,,,5,Flughafen,327,5.34,5A,Sachsenhausen,19.0,60549,highway,way
Inselgäßchen 60489 Frankfurt,50.1227195,8.6140969,1306,Inselgäßchen,,,,,,7,Rödelheim,401,7.55,7,Bockenheim,11.0,60489,highway,way
Glaserstraße 60599 Frankfurt,50.0996379,8.7286888,948,Glaserstraße,,,,,,5,Oberrad,380,5.28,5A,Sachsenhausen,8.0,60599,highway,way
Bruno-Poelke-Straße 60486 Frankfurt,50.1135556,8.6144671,3034,Bruno-Poelke-Straße,,,,,,2,Bockenheim,163,2.15,2,Bockenheim,13.0,60486,highway,way
Bodenseestraße 60386 Frankfurt,50.124459,8.7672562,457,Bodenseestraße,,,,,,11,Fechenheim,510,11.77,11,Ost,18.0,60386,highway,way
Ludwig-Gallmeyer-Straße 60599 Frankfurt,50.1011529,8.7291661,3737,Ludwig-Gallmeyer-Straße,,,,,,5,Oberrad,380,5.28,5A,Sachsenhausen,8.0,60599,highway,way
Im Feldchen 60437 Frankfurt,50.2055615,8.7099197,2801,Im Feldchen,,,,,,13,Nieder-Erlenbach,640,13.8,13,Nord,14.0,60437,highway,way
Sossenheimer Riedstraße 65936 Frankfurt,50.1212182,8.5694459,2016,Sossenheimer Riedstraße,,,,,,6,Sossenheim,632,6.54,6C,Höchst,17.0,65936,,
Klosterhofstraße 65931 Frankfurt,50.0911338,8.5000054,1453,Klosterhofstraße,,,,,,6,Zeilsheim,611,6.49,6B,Höchst,17.0,65931,,
Max-Eyth-Straße 60386 Frankfurt,50.1233176,8.7608246,1693,Max-Eyth-Straße,,,,,,11,Fechenheim,510,11.77,11,Ost,18.0,60386,,
Wiesenfeldstraße 65936 Frankfurt,50.1184963,8.5665032,2507,Wiesenfeldstraße,ungerade,,,,,6,Sossenheim,632,6.54,6C,Höchst,17.0,65936,,
Kranichsteiner Straße 60598 Frankfurt,50.0992361,8.6900499,1491,Kranichsteiner Straße,,,,,,5,Sachsenhausen-S.,323,5.3,5A,Sachsenhausen,8.0,60598,,
Max-Beckmann-Straße 60599 Frankfurt,50.086446,8.6959765,1691,Max-Beckmann-Straße,,,,,,5,Sachsenhausen-S.,332,5.29,5A,Sachsenhausen,8.0,60599,highway,way
An der Rotterdamer Werft 60327 Frankfurt,50.09932405,8.658955988775592,3489,An der Rotterdamer Werft,,,,,,1,Gutleutviertel,151,1.04,1,Gallus,4.0,60327,,
Am Eschbachtal 60437 Frankfurt,50.1856657,8.6937813,2709,Am Eschbachtal,,,,,,14,Harheim,660,14.81,14,Nord,14.0,60437,highway,way
Stephan-Heise-Straße 60488 Frankfurt,50.1351692,8.6156084,2294,Stephan-Heise-Straße,,,,,,7,Praunheim,423,7.59,7,Bockenheim,11.0,60488,highway,way
Fleckenbühlstraße 60437 Frankfurt,50.1818033,8.6599959,808,Fleckenbühlstraße,,,,,,10,Bonames,491,10.7,10,Nord,14.0,60437,highway,way
Konrad-Broßwitz-Straße 60487 Frankfurt,50.1258816,8.6407068,1478,Konrad-Broßwitz-Straße,ungerade,,,,,2,Bockenheim,362,2.12,2,Bockenheim,13.0,60487,highway,way
Saalhof 60311 Frankfurt,50.1095428,8.682947137997978,3736,Saalhof,,,,,,1,Altstadt,10,1.01,1,Ost,1.0,60311,,
Dürkheimer Straße 65934 Frankfurt,50.0985545,8.575362,672,Dürkheimer Straße,,,,,,6,Nied,561,6.42,6A,Höchst,16.0,65934,,
Sandgasse 60311 Frankfurt,50.111719,8.6805371,2091,Sandgasse,,,,,,1,Altstadt,10,1.01,1,Ost,1.0,60311,,
Gaußstraße 60316 Frankfurt,50.1205989,8.6923077,903,Gaußstraße,,,,,,3,Nordend-Ost,130,3.2,3,Ost,3.0,60316,highway,way
Kalmitstraße 60528 Frankfurt,50.0854932,8.6354997,1353,Kalmitstraße,,,,,,5,Niederrad,371,5.35,5B,Sachsenhausen,10.0,60528,highway,way
Ziegelhüttenweg 60598 Frankfurt,50.09092,8.6793518,2564,Ziegelhüttenweg,ungerade,1,,49,,5,Sachsenhausen-S.,323,5.3,5A,Sachsenhausen,8.0,60598,highway,way
Theodor-Heuss-Allee 60327 Frankfurt,50.1136964,8.6504085,2344,Theodor-Heuss-Allee,ungerade,3,,,,2,Westend-Süd,170,2.11,2,Bockenheim,13.0,60327,,
In der Erle 60388 Frankfurt,50.1474835,8.7638155,3699,In der Erle,,,,,,16,Bergen-Enkheim,680,16.83,16,Ost,18.0,60388,highway,way
Lachweg 60433 Frankfurt,50.1624364,8.6580026,1525,Lachweg,,,,,,9,Eschersheim,451,9.65,9,Dornbusch,12.0,60433,highway,way
Mainluststraße 60329 Frankfurt,50.1066459,8.6715832,1646,Mainluststraße,,,,,,1,Bahnhofsviertel,90,1.03,1,Gallus,4.0,60329,,
Burgstraße 60385 Frankfurt,50.1276297,8.7049104,580,Burgstraße,gerade,60,,,,3,Nordend-Ost,230,3.2,3,Ost,3.0,60385,,
Harheimer Stadtweg 60437 Frankfurt,50.1829813,8.6957007,2717,Harheimer Stadtweg,,,,,,14,Harheim,660,14.81,14,Nord,14.0,60437,highway,way
Johannesallee 65929 Frankfurt,50.1084645,8.5383551,1327,Johannesallee,,,,,,6,Unterliederbach,621,6.51,6C,Höchst,17.0,65929,highway,way
Werrastraße 60486 Frankfurt,50.1205066,8.6397573,2484,Werrastraße,,,,,,2,Bockenheim,350,2.13,2,Bockenheim,13.0,60486,,
Falkstraße 60487 Frankfurt,50.1256594,8.6439565,777,Falkstraße,,,,,,2,Bockenheim,361,2.12,2,Bockenheim,13.0,60487,highway,way
Hortensienring 65929 Frankfurt,50.104396,8.5257712,3243,Hortensienring,,,,,,6,Unterliederbach,623,6.51,6C,Höchst,17.0,65929,,
Klingerstraße 60313 Frankfurt,50.1147004,8.6891719,1451,Klingerstraße,ungerade,1,,9,,1,Innenstadt,80,1.01,1,Ost,1.0,60313,amenity,node
Celsiusplatz 60486 Frankfurt,50.11739595,8.633116445981635,3512,Celsiusplatz,,,,,,2,Bockenheim,342,2.14,2,Bockenheim,13.0,60486,amenity,node
Grubweg 60437 Frankfurt,50.1901815,8.6412708,2688,Grubweg,,,,,,12,Kalbach-Riedberg,650,12.79,12,Nord,14.0,60437,,
Rote-Kreuz-Weg 60599 Frankfurt,50.0907997,8.7077346,2051,Rote-Kreuz-Weg,,,,,,5,Sachsenhausen-S.,332,5.29,5A,Sachsenhausen,8.0,60599,,
Praunheimer Weg 60439 Frankfurt,50.1560402,8.6225392,1946,Praunheimer Weg,ungerade,1,,,,8,Niederursel,481,8.63,8,Nord,14.0,60439,,
Zum Gottschalkhof 60594 Frankfurt,50.1042437,8.7029974,3238,Zum Gottschalkhof,,,,,,5,Sachsenhausen-N.,331,5.31,5A,Sachsenhausen,8.0,60594,,
Carl-Heicke-Weg 60385 Frankfurt,50.1193836,8.7170407,590,Carl-Heicke-Weg,,,,,,4,Ostend,252,4.25,4,Ost,5.0,60385,,
Carl-Zeiss-Straße 60388 Frankfurt,50.1419286,8.7454746,2865,Carl-Zeiss-Straße,,,,,,16,Bergen-Enkheim,680,16.83,16,Ost,18.0,60388,highway,way
Seckbacher Landstraße 60389 Frankfurt,50.1337504,8.7117066,2210,Seckbacher Landstraße,,,,,,4,Bornheim,272,4.22,4,Ost,6.0,60389,highway,way
Neue Schlesingergasse 60315 Frankfurt,50.11199,8.673227,1784,Neue Schlesingergasse,gerade,14,,18,,1,Innenstadt,40,1.03,1,Ost,1.0,60315,,
Kolbenbergstraße 60488 Frankfurt,50.149082,8.6211795,1473,Kolbenbergstraße,,,,,,7,Praunheim,425,7.6,7,Bockenheim,14.0,60488,,
Humserstraße 60320 Frankfurt,50.1351774,8.671828,1240,Humserstraße,,,,,,3,Nordend-West,202,3.16,3,Dornbusch,12.0,60320,,
Nistergasse 60439 Frankfurt,50.1587034,8.6488695,1818,Nistergasse,,,,,,8,Heddernheim,431,8.61,8,Nord,14.0,60439,highway,way
Braunfelsstraße 60486 Frankfurt,50.1139837,8.6355509,487,Braunfelsstraße,,,,,,2,Bockenheim,163,2.15,2,Bockenheim,13.0,60486,,
Amselweg 65929 Frankfurt,50.1048121,8.5326398,180,Amselweg,,,,,,6,Unterliederbach,621,6.51,6C,Höchst,17.0,65929,,
Elbinger Straße 60487 Frankfurt,50.1256689,8.6268472,711,Elbinger Straße,,,,,,7,Bockenheim,343,7.57,2,Bockenheim,11.0,60487,,
An der Pfarrwiese 60437 Frankfurt,50.1812133,8.6934318,2712,An der Pfarrwiese,,,,,,14,Harheim,660,14.81,14,Nord,14.0,60437,,
Zehntgasse 60529 Frankfurt,50.0864682,8.5829325,2552,Zehntgasse,,,,,,6,Schwanheim,531,6.38,6A,Sachsenhausen,10.0,60529,,
Karl-Perott-Platz 60439 Frankfurt,50.1602592,8.645597999724203,3392,Karl-Perott-Platz,,,,,,8,Heddernheim,431,8.61,8,Nord,14.0,60439,,
Hahnbergweg 65931 Frankfurt,50.0974757,8.5005412,1058,Hahnbergweg,,,,,,6,Zeilsheim,612,6.5,6B,Höchst,17.0,65931,,
Gauguinweg 60438 Frankfurt,50.1768197,8.6425133,3325,Gauguinweg,,,,,,12,Kalbach-Riedberg,651,12.79,12,Nord,14.0,60438,,
Gräfin-Dönhoff-Straße 60438 Frankfurt,50.1793986,8.6376397,3469,Gräfin-Dönhoff-Straße,,,,,,12,Kalbach-Riedberg,651,12.79,12,Nord,14.0,60438,,
Tannenkopfweg 60529 Frankfurt,50.0866792,8.6042181,2324,Tannenkopfweg,,,,,,6,Schwanheim,532,6.37,6A,Sachsenhausen,10.0,60529,,
Adalbert-Stifter-Straße 60431 Frankfurt,50.1450315,8.663405,4,Adalbert-Stifter-Straße,ungerade,,,,,9,Ginnheim,441,9.67,9,Nord,12.0,60431,,
Buchrainstraße 60599 Frankfurt,50.0986702,8.7244186,525,Buchrainstraße,ungerade,3,,97,,5,Oberrad,380,5.28,5A,Sachsenhausen,8.0,60599,,
Am Steinernen Kreuz 65933 Frankfurt,50.1023268,8.5977985,188,Am Steinernen Kreuz,,,,,,6,Griesheim,542,6.4,6A,Gallus,16.0,65933,highway,way
Berger Weg 60389 Frankfurt,50.153931,8.7169189,397,Berger Weg,,,,,,11,Seckbach,390,11.75,11,Ost,6.0,60389,highway,way
Am Kapellenberg 65936 Frankfurt,50.1177294,8.5621063,132,Am Kapellenberg,,,,,,6,Sossenheim,631,6.53,6C,Höchst,17.0,65936,highway,node
Eschenheimer Anlage 60318 Frankfurt,50.1200026,8.6864357,755,Eschenheimer Anlage,ungerade,15,,37,,3,Nordend-West,120,3.21,3,Ost,3.0,60318,,
Cäcilie-Breckheimer-Platz 60386 Frankfurt,50.1284424,8.734420798600787,3758,Cäcilie-Breckheimer-Platz,,,,,,11,Riederwald,262,11.76,11,Ost,18.0,60386,,
Gerhardsrainweg 60437 Frankfurt,50.1959682,8.6660432,3540,Gerhardsrainweg,,,,,,15,Nieder-Eschbach,670,15.82,15,Nord,14.0,60437,highway,way
Walter-Leiske-Straße 60320 Frankfurt,50.1456854,8.6703064,3001,Walter-Leiske-Straße,,,,,,9,Dornbusch,462,9.69,9,Dornbusch,12.0,60320,,
Uhlfelderstraße 60314 Frankfurt,50.1192034,8.7487004,2381,Uhlfelderstraße,,,,,,11,Fechenheim,520,11.78,11,Ost,18.0,60314,,
Bechtenwaldstraße 65931 Frankfurt,50.0984871,8.5016855,388,Bechtenwaldstraße,,,,,,6,Zeilsheim,612,6.5,6B,Höchst,17.0,65931,,
Feldscheidenstraße 60435 Frankfurt,50.1462945,8.68287,788,Feldscheidenstraße,,,,,,10,Eckenheim,461,10.72,10,Dornbusch,12.0,60435,leisure,relation
Luginsland 60313 Frankfurt,50.1141179,8.6732208,1631,Luginsland,,,,,,1,Innenstadt,50,1.02,1,Ost,1.0,60313,highway,way
Ludwig-Reinheimer-Straße 60439 Frankfurt,50.1646708,8.6394886,3073,Ludwig-Reinheimer-Straße,,,,,,8,Heddernheim,431,8.61,8,Nord,14.0,60439,,
Fleischergasse 60487 Frankfurt,50.1238993,8.6381276,809,Fleischergasse,,,,,,2,Bockenheim,350,2.13,2,Bockenheim,13.0,60487,highway,way
Fuchshohl 60431 Frankfurt,50.1481036,8.6542109,886,Fuchshohl,,,,,,9,Ginnheim,441,9.67,9,Nord,12.0,60431,highway,way
Porzellanhofstraße 60313 Frankfurt,50.1148616,8.6885594,1939,Porzellanhofstraße,,,,,,1,Innenstadt,70,1.01,1,Ost,1.0,60313,highway,way
Massenheimer Straße 60437 Frankfurt,50.1849547,8.6671863,1682,Massenheimer Straße,,,,,,10,Bonames,491,10.7,10,Nord,14.0,60437,,
Paulsplatz 60311 Frankfurt,50.1111598,8.681498171081262,1904,Paulsplatz,,,,,,1,Altstadt,10,1.01,1,Ost,1.0,60311,,
Bockenheimer Landstraße 60325 Frankfurt,50.118857,8.6606429,452,Bockenheimer Landstraße,ungerade,9,,77,,2,Westend-Süd,100,2.11,2,Bockenheim,3.0,60325,highway,way
Jahnstraße 60318 Frankfurt,50.1204521,8.6828591,1314,Jahnstraße,,,,,,3,Nordend-West,120,3.21,3,Ost,3.0,60318,highway,way
Niedernhausener Straße 60486 Frankfurt,50.1076684,8.6401051,3191,Niedernhausener Straße,gerade,,,,,1,Gallus,162,1.07,1,Gallus,4.0,60486,highway,way
Knorrstraße 60326 Frankfurt,50.1071953,8.6414651,1457,Knorrstraße,,,,,,1,Gallus,162,1.07,1,Gallus,4.0,60326,,
Zum Rebstockbad 60486 Frankfurt,50.1101329,8.6217384,3032,Zum Rebstockbad,,,,,,2,Bockenheim,163,2.15,2,Bockenheim,13.0,60486,highway,way
Riedstraße 60388 Frankfurt,50.1492924,8.7540973,2906,Riedstraße,,,,,,16,Bergen-Enkheim,680,16.83,16,Ost,18.0,60388,,
Glaskopfweg 60439 Frankfurt,50.1623282,8.6257928,949,Glaskopfweg,,,,,,8,Niederursel,481,8.63,8,Nord,14.0,60439,highway,way
Alexanderstraße 60489 Frankfurt,50.1251415,8.6088387,27,Alexanderstraße,ungerade,1,,29,,7,Rödelheim,402,7.56,7,Bockenheim,11.0,60489,highway,way
Rödelheimer Landstraße 60486 Frankfurt,50.1212908,8.621238,2026,Rödelheimer Landstraße,gerade,132a,a,,,7,Bockenheim,343,7.57,2,Bockenheim,11.0,60486,highway,way
Hochstädter Straße 60389 Frankfurt,50.141585,8.7274637,1182,Hochstädter Straße,,,,,,11,Seckbach,390,11.75,11,Ost,6.0,60389,highway,way
Am Leonhardstor 60311 Frankfurt,50.108958,8.6798111,144,Am Leonhardstor,,,,,,1,Altstadt,10,1.01,1,Ost,1.0,60311,highway,way
Hugo-Eckener-Ring 60549 Frankfurt,50.0531547,8.5787668,2783,Hugo-Eckener-Ring,,,,,,5,Flughafen,329,5.34,5A,Sachsenhausen,19.0,60549,highway,way
Waldemser Straße 60326 Frankfurt,50.106613,8.6343196,3648,Waldemser Straße,,,,,,1,Gallus,162,1.07,1,Gallus,4.0,60326,,
Wiesbadener Straße 60486 Frankfurt,50.1164443,8.6253651,2505,Wiesbadener Straße,,,,,,2,Bockenheim,163,2.15,2,Bockenheim,11.0,60486,highway,way
Mailänder Straße 60598 Frankfurt,50.0905899,8.6876511,2612,Mailänder Straße,,,,,,5,Sachsenhausen-S.,323,5.3,5A,Sachsenhausen,8.0,60598,,
Klappergasse 60594 Frankfurt,50.1052773,8.6907807,1421,Klappergasse,,,,,,5,Sachsenhausen-N.,300,5.31,5A,Sachsenhausen,8.0,60594,highway,way
Am Goldsteinpark 60529 Frankfurt,50.0833264,8.6085195,114,Am Goldsteinpark,,,,,,6,Schwanheim,532,6.37,6A,Sachsenhausen,10.0,60529,,
Eckenheimer Schulstraße 60435 Frankfurt,50.1506283,8.6819818,685,Eckenheimer Schulstraße,,,,,,10,Eckenheim,461,10.72,10,Dornbusch,12.0,60435,,
Freihofstraße 60385 Frankfurt,50.1297487,8.7135196,856,Freihofstraße,,,,,,4,Bornheim,272,4.22,4,Ost,6.0,60385,highway,way
Baumweg 60316 Frankfurt,50.1186131,8.6942202,385,Baumweg,,,,,,3,Nordend-Ost,130,3.2,3,Ost,3.0,60316,highway,way
Burgholzer Platz 60433 Frankfurt,50.1557204,8.6691484,577,Burgholzer Platz,,,,,,9,Eschersheim,452,9.66,9,Dornbusch,12.0,60433,,
Günthersburgallee 60316 Frankfurt,50.1245191,8.6947547,1017,Günthersburgallee,ungerade,1,,61,,3,Nordend-Ost,221,3.19,3,Ost,3.0,60316,,
Hügelstraße 60433 Frankfurt,50.1489154,8.670475,1229,Hügelstraße,ungerade,67,,113,,9,Dornbusch,462,9.69,9,Dornbusch,12.0,60433,amenity,node
Altenburger Weg 65931 Frankfurt,50.0935373,8.5008782,48,Altenburger Weg,,,,,,6,Zeilsheim,611,6.49,6B,Höchst,17.0,65931,,
Karl-Flesch-Straße 60385 Frankfurt,50.1251799,8.7179444,1364,Karl-Flesch-Straße,,,,,,4,Bornheim,281,4.24,4,Ost,6.0,60385,,
Faulborngasse 60433 Frankfurt,50.1621448,8.6563711,781,Faulborngasse,,,,,,9,Eschersheim,451,9.65,9,Dornbusch,12.0,60433,highway,way
Am Stadtpark 65929 Frankfurt,50.1092449,8.5577976,186,Am Stadtpark,,,,,,6,Höchst,580,6.45,6C,Höchst,17.0,65929,,
Walldorfer Straße 60598 Frankfurt,50.0933649,8.6826111,2435,Walldorfer Straße,,,,,,5,Sachsenhausen-S.,323,5.3,5A,Sachsenhausen,8.0,60598,highway,way
Gallusanlage 60329 Frankfurt,50.110046350000005,8.672116259105927,897,Gallusanlage,,,,,,1,Bahnhofsviertel,90,1.03,1,Gallus,4.0,60329,,
Zum Stulen 60438 Frankfurt,50.1777762,8.6369773,3402,Zum Stulen,,,,,,12,Kalbach-Riedberg,651,12.79,12,Nord,14.0,60438,highway,way
Heussleinstraße 65931 Frankfurt,50.0879005,8.510862,2960,Heussleinstraße,,,,,,6,Sindlingen,602,6.48,6B,Höchst,17.0,65931,,
Weckerlinstraße 65929 Frankfurt,50.1047404,8.5466555,2455,Weckerlinstraße,,,,,,6,Höchst,570,6.44,6C,Höchst,17.0,65929,,
Eckenheimer Landstraße 60435 Frankfurt,50.1466145,8.6826451,684,Eckenheimer Landstraße,ungerade,341,,505,,10,Eckenheim,461,10.72,10,Dornbusch,12.0,60435,highway,way
Erfurter Weg 65931 Frankfurt,50.0959959,8.4999045,744,Erfurter Weg,,,,,,6,Zeilsheim,611,6.49,6B,Höchst,17.0,65931,highway,way
Ursinusstraße 60486 Frankfurt,50.1142481,8.6140894,2402,Ursinusstraße,,,,,,2,Bockenheim,163,2.15,2,Bockenheim,13.0,60486,,
Wiesenhüttenstraße 60329 Frankfurt,50.106188,8.6654464,2509,Wiesenhüttenstraße,ungerade,,,,,1,Gutleutviertel,151,1.04,1,Gallus,4.0,60329,highway,way
Arthur-von-Weinberg-Steg 60386 Frankfurt,50.1252135,8.7699165,3009,Arthur-von-Weinberg-Steg,,,,,,11,Fechenheim,510,11.77,11,Ost,18.0,60386,,
Buchenstraße 65933 Frankfurt,50.0958851,8.6070119,523,Buchenstraße,,,,,,6,Griesheim,552,6.41,6A,Gallus,16.0,65933,highway,way
Speyerer Straße 60327 Frankfurt,50.1054325,8.6504748,2266,Speyerer Straße,,,,,,1,Gallus,161,1.06,1,Gallus,4.0,60327,highway,way
Zur Kalbacher Höhe 60438 Frankfurt,50.1754632,8.6420994,3290,Zur Kalbacher Höhe,,,,,,12,Kalbach-Riedberg,651,12.79,12,Nord,14.0,60438,highway,way
Hans-Eick-Weg 60487 Frankfurt,50.1247613,8.6405098,3064,Hans-Eick-Weg,,,,,,2,Bockenheim,361,2.12,2,Bockenheim,13.0,60487,highway,way
Dantestraße 60325 Frankfurt,50.1181379,8.6550851,618,Dantestraße,,,,,,2,Westend-Süd,170,2.11,2,Bockenheim,13.0,60325,highway,way
Bonameser Mittelgasse 60437 Frankfurt,50.1812098,8.6627534,471,Bonameser Mittelgasse,,,,,,10,Bonames,491,10.7,10,Nord,14.0,60437,highway,way
Ignatz-Bubis-Brücke 60311 Frankfurt,50.1087362,8.6928959,3331,Ignatz-Bubis-Brücke,,,,,,1,Innenstadt,80,1.01,1,Ost,1.0,60311,,
Sindlinger Mainbrücke 65931 Frankfurt,50.0747331,8.520981,3000,Sindlinger Mainbrücke,,,,,,6,Sindlingen,601,6.47,6B,Höchst,17.0,65931,highway,way
Osthafenbrücke 60599 Frankfurt,50.10638195,8.711271931023049,3652,Osthafenbrücke,,,,,,5,Sachsenhausen-N.,331,5.31,5A,Sachsenhausen,5.0,60599,,
Westendstraße 60325 Frankfurt,50.11443,8.66103,2491,Westendstraße,ungerade,1,,73,,2,Westend-Süd,100,2.11,2,Bockenheim,13.0,60325,,
Tilly-Edinger-Platz 60486 Frankfurt,50.1166573,8.648788037907421,3702,Tilly-Edinger-Platz,,,,,,2,Westend-Süd,170,2.11,2,Bockenheim,13.0,60486,,
Bornemannstraße 60599 Frankfurt,50.0984984,8.701762,475,Bornemannstraße,,,,,,5,Sachsenhausen-S.,332,5.29,5A,Sachsenhausen,8.0,60599,highway,way
Ossietzkystraße 60598 Frankfurt,50.0978438,8.6877883,2620,Ossietzkystraße,,,,,,5,Sachsenhausen-S.,323,5.3,5A,Sachsenhausen,8.0,60598,highway,way
Emmerich-Josef-Straße 65929 Frankfurt,50.1025698,8.5505641,728,Emmerich-Josef-Straße,ungerade,1,,19,,6,Höchst,580,6.45,6C,Höchst,17.0,65929,,
Bessie-Coleman-Straße 60549 Frankfurt,50.0565694,8.5957729,3549,Bessie-Coleman-Straße,,,,,,5,Flughafen,327,5.34,5A,Sachsenhausen,19.0,60549,highway,way
Jägerallee 65933 Frankfurt,50.1001338,8.5910928,1313,Jägerallee,,,,,,6,Griesheim,552,6.41,6A,Gallus,16.0,65933,,
Sudetenstraße 60437 Frankfurt,50.2053008,8.7049698,2663,Sudetenstraße,,,,,,13,Nieder-Erlenbach,640,13.8,13,Nord,14.0,60437,,
Neumannstraße 60433 Frankfurt,50.1497557,8.6658711,1789,Neumannstraße,,,,,,9,Eschersheim,452,9.66,9,Dornbusch,12.0,60433,,
Am Rebenborn 60388 Frankfurt,50.152006,8.7473203,2846,Am Rebenborn,,,,,,16,Bergen-Enkheim,680,16.83,16,Ost,18.0,60388,,
Hagenstraße 60314 Frankfurt,50.110493,8.709912,1057,Hagenstraße,,,,,,4,Ostend,261,4.27,4,Ost,5.0,60314,highway,way
Flößerbrücke 60314 Frankfurt,50.107685700000005,8.694829023114728,815,Flößerbrücke,,,,,,1,Innenstadt,80,1.01,1,Ost,1.0,60314,,
Kleine Wiesenau 60323 Frankfurt,50.119907,8.6628602,1440,Kleine Wiesenau,,,,,,2,Westend-Süd,180,2.1,2,Bockenheim,3.0,60323,highway,way
Diebsgrundweg 60487 Frankfurt,50.1308006,8.6508089,635,Diebsgrundweg,,,,,,2,Bockenheim,362,2.12,2,Bockenheim,13.0,60487,highway,way
Egelsbacher Straße 60528 Frankfurt,50.0858783,8.6480372,693,Egelsbacher Straße,,,,,,5,Niederrad,371,5.35,5B,Sachsenhausen,10.0,60528,highway,way
Kilianstädter Straße 60386 Frankfurt,50.1358987,8.7696528,2626,Kilianstädter Straße,,,,,,11,Fechenheim,510,11.77,11,Ost,18.0,60386,,
Heilmannstraße 60439 Frankfurt,50.1548366,8.6275418,1118,Heilmannstraße,,,,,,8,Praunheim,426,8.62,7,Nord,14.0,60439,highway,way
Elefantengasse 60313 Frankfurt,50.1169888,8.6865933,712,Elefantengasse,,,,,,1,Innenstadt,60,1.02,1,Ost,1.0,60313,,
Alt-Hausen 60488 Frankfurt,50.1335355,8.6254481,61,Alt-Hausen,,,,,,7,Hausen,410,7.58,7,Bockenheim,11.0,60488,,
Hochfeldstraße 60437 Frankfurt,50.1868069,8.6953093,2719,Hochfeldstraße,,,,,,14,Harheim,660,14.81,14,Nord,14.0,60437,,
Thea-Rasche-Straße 60549 Frankfurt,50.0554056,8.5890872,3551,Thea-Rasche-Straße,,,,,,5,Flughafen,327,5.34,5A,Sachsenhausen,19.0,60549,highway,way
Kleinschmidtstraße 60431 Frankfurt,50.1522087,8.6572515,1443,Kleinschmidtstraße,,,,,,9,Eschersheim,452,9.66,9,Dornbusch,12.0,60431,highway,way
Am Ziehgraben 60488 Frankfurt,50.1382508,8.6216019,214,Am Ziehgraben,,,,,,7,Hausen,410,7.58,7,Bockenheim,11.0,60488,highway,way
Odenwaldstraße 60528 Frankfurt,50.0857444,8.6423357,1854,Odenwaldstraße,,,,,,5,Niederrad,371,5.35,5B,Sachsenhausen,10.0,60528,,
Hermesweg 60316 Frankfurt,50.1181174,8.6931804,1154,Hermesweg,,,,,,3,Nordend-Ost,130,3.2,3,Ost,3.0,60316,,
Schlettweinstraße 60386 Frankfurt,50.1281075,8.7385122,2134,Schlettweinstraße,,,,,,11,Riederwald,262,11.76,11,Ost,18.0,60386,highway,way
Eschersheimer Landstraße 60323 Frankfurt,50.1299055,8.6720858,758,Eschersheimer Landstraße,ungerade,147,,157,,2,Westend-Nord,191,2.09,2,Dornbusch,3.0,60323,highway,way
Pfarrgäßchen 60437 Frankfurt,50.1818975,8.6637299,1916,Pfarrgäßchen,,,,,,10,Bonames,491,10.7,10,Nord,14.0,60437,,
Röntgenstraße 60388 Frankfurt,50.1410961,8.7492255,2908,Röntgenstraße,,,,,,16,Bergen-Enkheim,680,16.83,16,Ost,18.0,60388,,
Eschenbachstraße 60596 Frankfurt,50.0951921,8.6680843,754,Eschenbachstraße,,,,,,5,Sachsenhausen-N.,322,5.33,5A,Sachsenhausen,8.0,60596,highway,way
Hülya-Platz 60486 Frankfurt,50.1235288,8.639859,3275,Hülya-Platz,,,,,,2,Bockenheim,350,2.13,2,Bockenheim,13.0,60486,,
Nachtigallenweg 65929 Frankfurt,50.1043913,8.5312714,1764,Nachtigallenweg,,,,,,6,Unterliederbach,621,6.51,6C,Höchst,17.0,65929,,
Hermannspforte 60437 Frankfurt,50.1819402,8.6894236,2718,Hermannspforte,,,,,,14,Harheim,660,14.81,14,Nord,14.0,60437,highway,way
Alois-Eckert-Straße 60528 Frankfurt,50.078599,8.6430825,3048,Alois-Eckert-Straße,,,,,,5,Niederrad,372,5.36,5B,Sachsenhausen,10.0,60528,,
Robert-Mayer-Straße 60325 Frankfurt,50.1166868,8.6527361,2022,Robert-Mayer-Straße,ungerade,11,,15,,2,Westend-Süd,170,2.11,2,Bockenheim,13.0,60325,,
Volkshausstraße 60388 Frankfurt,50.1438854,8.7516764,2925,Volkshausstraße,,,,,,16,Bergen-Enkheim,680,16.83,16,Ost,18.0,60388,,
Bruchfeldstraße 60528 Frankfurt,50.0863877,8.6417086,511,Bruchfeldstraße,,,,,,5,Niederrad,371,5.35,5B,Sachsenhausen,10.0,60528,,
Deutschherrnbrücke 60594 Frankfurt,50.1053276,8.7041905,630,Deutschherrnbrücke,,,,,,5,Sachsenhausen-N.,331,5.31,5A,Sachsenhausen,8.0,60594,highway,way
Renettenstraße 60435 Frankfurt,50.1562241,8.6998966,3382,Renettenstraße,,,,,,10,Preungesheim,470,10.73,10,Dornbusch,12.0,60435,amenity,node
Höchster Stadtpark 65936 Frankfurt,50.1114295,8.55608658875493,1188,Höchster Stadtpark,,,,,,6,Sossenheim,631,6.53,6C,Höchst,17.0,65936,highway,way
Rosenbergerstraße 60313 Frankfurt,50.1174521,8.6859276,2042,Rosenbergerstraße,,,,,,1,Innenstadt,60,1.02,1,Ost,1.0,60313,highway,way
Bertholdstraße 60439 Frankfurt,50.156046,8.6267681,411,Bertholdstraße,,,,,,8,Praunheim,426,8.62,7,Nord,14.0,60439,,
Lucaestraße 60433 Frankfurt,50.1484637,8.6667084,1617,Lucaestraße,,,,,,9,Eschersheim,452,9.66,9,Dornbusch,12.0,60433,highway,way
Franz-Henle-Straße 65929 Frankfurt,50.1033079,8.5369184,843,Franz-Henle-Straße,,,,,,6,Unterliederbach,621,6.51,6C,Höchst,17.0,65929,highway,way
Auf der Lindenhöhe 60433 Frankfurt,50.1507152,8.6650439,297,Auf der Lindenhöhe,,,,,,9,Eschersheim,452,9.66,9,Dornbusch,12.0,60433,highway,way
Gravenbruchring 63263 Frankfurt,50.0582031,8.6963316,979,Gravenbruchring,,,,,,5,Sachsenhausen-S.,332,5.29,5A,Sachsenhausen,,63263,,
Börsenstraße 60313 Frankfurt,50.1153189,8.6768256,465,Börsenstraße,,,,,,1,Innenstadt,50,1.02,1,Ost,1.0,60313,,
Krummauer Straße 60388 Frankfurt,50.1475843,8.7580046,2893,Krummauer Straße,,,,,,16,Bergen-Enkheim,680,16.83,16,Ost,18.0,60388,,
Alfred-Wegener-Straße 60438 Frankfurt,50.1752152,8.6301526,3416,Alfred-Wegener-Straße,,,,,,8,Niederursel,484,8.63,8,Nord,14.0,60438,,
Neue Niedenau 60325 Frankfurt,50.1114333,8.6628265,3190,Neue Niedenau,,,,,,2,Westend-Süd,100,2.11,2,Bockenheim,13.0,60325,highway,way
Birkenweg 60486 Frankfurt,50.1185255,8.6304272,432,Birkenweg,,,,,,2,Bockenheim,342,2.14,2,Bockenheim,13.0,60486,highway,way
Taubenstraße 60313 Frankfurt,50.1169091,8.6791306,2327,Taubenstraße,,,,,,1,Innenstadt,50,1.02,1,Ost,1.0,60313,,
Zeil 60313 Frankfurt,50.11430165,8.68171346459483,2554,Zeil,ungerade,1,,47,,1,Innenstadt,70,1.01,1,Ost,1.0,60313,,
Leopold-Ehrmann-Straße 60388 Frankfurt,50.1579897,8.7592023,3052,Leopold-Ehrmann-Straße,,,,,,16,Bergen-Enkheim,680,16.83,16,Ost,18.0,60388,highway,way
Steinrutsch 65931 Frankfurt,50.0906768,8.4989633,2291,Steinrutsch,,,,,,6,Zeilsheim,611,6.49,6B,Höchst,17.0,65931,amenity,node
Simon-Ochs-Straße 60435 Frankfurt,50.145126,8.6943793,2236,Simon-Ochs-Straße,,,,,,10,Preungesheim,470,10.73,10,Dornbusch,12.0,60435,highway,way
Edmund-Rumpler-Straße 60549 Frankfurt,50.0566673,8.5914208,3673,Edmund-Rumpler-Straße,,,,,,5,Flughafen,327,5.34,5A,Sachsenhausen,19.0,60549,railway,node
Felsenbirnenweg 65929 Frankfurt,50.1123901,8.5501501,3299,Felsenbirnenweg,,,,,,6,Höchst,570,6.44,6C,Höchst,17.0,65929,highway,way
Hofstraße 60311 Frankfurt,50.1079075,8.6751594,1202,Hofstraße,,,,,,1,Innenstadt,40,1.03,1,Ost,1.0,60311,highway,way
Skylineblick 60438 Frankfurt,50.1794095,8.6418266,3412,Skylineblick,,,,,,12,Kalbach-Riedberg,651,12.79,12,Nord,14.0,60438,,
Schelmenweg 60388 Frankfurt,50.1576269,8.7511497,2911,Schelmenweg,,,,,,16,Bergen-Enkheim,680,16.83,16,Ost,18.0,60388,,
Wiesbadener Straße 65936 Frankfurt,50.1277824,8.565491,2505,Wiesbadener Straße,,,,,,6,Unterliederbach,622,6.52,6C,Höchst,17.0,65936,,
Burgunderweg 65929 Frankfurt,50.1130865,8.5377152,581,Burgunderweg,,,,,,6,Unterliederbach,622,6.52,6C,Höchst,17.0,65929,,
Germaniaplatz 60385 Frankfurt,50.1252,8.7012904,929,Germaniaplatz,,,,,,4,Bornheim,240,4.23,4,Ost,6.0,60385,highway,way
Mathildenstraße 60599 Frankfurt,50.099117,8.7217389,1685,Mathildenstraße,,,,,,5,Oberrad,380,5.28,5A,Sachsenhausen,8.0,60599,highway,way
Am Herrenhof 60435 Frankfurt,50.1723199,8.6954752,122,Am Herrenhof,,,,,,10,Berkersheim,500,10.74,10,Nord,14.0,60435,,
Porthstraße 60435 Frankfurt,50.1434532,8.685132,1938,Porthstraße,,,,,,10,Eckenheim,461,10.72,10,Dornbusch,12.0,60435,,
Güntherstraße 60528 Frankfurt,50.0834541,8.6484222,1019,Güntherstraße,,,,,,5,Niederrad,372,5.36,5B,Sachsenhausen,10.0,60528,amenity,node
Konrad-Glatt-Straße 65929 Frankfurt,50.1036711,8.546379,1479,Konrad-Glatt-Straße,,,,,,6,Höchst,570,6.44,6C,Höchst,17.0,65929,highway,way
Alter Gerichtsplatz 60438 Frankfurt,50.17714745,8.637048163852041,3735,Alter Gerichtsplatz,,,,,,12,Kalbach-Riedberg,651,12.79,12,Nord,14.0,60438,,
Strubbergstraße 60489 Frankfurt,50.1226167,8.6055333,2316,Strubbergstraße,,,,,,7,Rödelheim,402,7.56,7,Bockenheim,11.0,60489,highway,way
Am Weidenwörth 60529 Frankfurt,50.0894374,8.5767411,205,Am Weidenwörth,,,,,,6,Schwanheim,531,6.38,6A,Sachsenhausen,10.0,60529,,
Altvaterstraße 60437 Frankfurt,50.2030214,8.6687217,2738,Altvaterstraße,,,,,,15,Nieder-Eschbach,670,15.82,15,Nord,14.0,60437,,
Bückeburger Weg 65931 Frankfurt,50.0922782,8.499651,528,Bückeburger Weg,,,,,,6,Zeilsheim,611,6.49,6B,Höchst,17.0,65931,,
Egestraße 60488 Frankfurt,50.138223,8.6129539,695,Egestraße,,,,,,7,Praunheim,423,7.59,7,Bockenheim,11.0,60488,,
Nathan-Trier-Straße 65933 Frankfurt,50.0931588,8.6109625,1768,Nathan-Trier-Straße,,,,,,6,Griesheim,541,6.39,6A,Gallus,16.0,65933,,
Rottweiler Platz 60327 Frankfurt,50.1014886,8.6612807,3059,Rottweiler Platz,,,,,,1,Gutleutviertel,151,1.04,1,Gallus,4.0,60327,,
Jacob-Schiff-Straße 60433 Frankfurt,50.1477632,8.6689007,1319,Jacob-Schiff-Straße,,,,,,9,Dornbusch,462,9.69,9,Dornbusch,12.0,60433,,
Einsiedlerstraße 60439 Frankfurt,50.1644874,8.626115,705,Einsiedlerstraße,,,,,,8,Niederursel,481,8.63,8,Nord,14.0,60439,,
Textorstraße 60596 Frankfurt,50.0985667,8.6780294,2338,Textorstraße,ungerade,89,,111,,5,Sachsenhausen-N.,321,5.32,5A,Sachsenhausen,8.0,60596,,
Volkspark Niddatal 60487 Frankfurt,50.14045085,8.634696694821864,3725,Volkspark Niddatal,,,,,,2,Bockenheim,362,2.12,2,Bockenheim,11.0,60487,highway,way
Arnoldshainer Straße 60489 Frankfurt,50.1267242,8.6090039,3061,Arnoldshainer Straße,,,,,,7,Rödelheim,402,7.56,7,Bockenheim,11.0,60489,,
Morgenzeile 60529 Frankfurt,50.0853712,8.6173239,1741,Morgenzeile,,,,,,6,Schwanheim,532,6.37,6A,Sachsenhausen,10.0,60529,highway,way
Martin-Henrich-Anlage 60529 Frankfurt,50.0845327,8.575639425831588,3343,Martin-Henrich-Anlage,,,,,,6,Schwanheim,531,6.38,6A,Sachsenhausen,10.0,60529,,
Niedergasse 60389 Frankfurt,50.1436246,8.7282639,1807,Niedergasse,,,,,,11,Seckbach,390,11.75,11,Ost,6.0,60389,,
Dörnigheimer Straße 60314 Frankfurt,50.1138386,8.7063491,649,Dörnigheimer Straße,,,,,,4,Ostend,261,4.27,4,Ost,5.0,60314,,
Fürstenbergerstraße 60322 Frankfurt,50.1258755,8.6807934,889,Fürstenbergerstraße,ungerade,1,,151,,3,Nordend-West,203,3.16,3,Dornbusch,3.0,60322,,
Werftstraße 60327 Frankfurt,50.1011798,8.6628092,2483,Werftstraße,,,,,,1,Gutleutviertel,151,1.04,1,Gallus,4.0,60327,highway,way
Alfred-Göbel-Weg 60388 Frankfurt,50.1507749,8.7541017,2834,Alfred-Göbel-Weg,,,,,,16,Bergen-Enkheim,680,16.83,16,Ost,18.0,60388,highway,way
Gisèle-Freund-Platz 60323 Frankfurt,50.1268401,8.670769150369665,3713,Gisèle-Freund-Platz,,,,,,2,Westend-Nord,191,2.09,2,Dornbusch,3.0,60323,highway,way
Elly-Heuss-Knapp-Straße 60438 Frankfurt,50.180734,8.640179,3409,Elly-Heuss-Knapp-Straße,,,,,,12,Kalbach-Riedberg,651,12.79,12,Nord,14.0,60438,,
Hohe Stätte 60437 Frankfurt,50.2052896,8.7095835,2802,Hohe Stätte,,,,,,13,Nieder-Erlenbach,640,13.8,13,Nord,14.0,60437,highway,way
Martin-Luther-Platz 60316 Frankfurt,50.1239528,8.697287674631417,3315,Martin-Luther-Platz,ungerade,,,,,3,Nordend-Ost,230,3.2,3,Ost,3.0,60316,,
Gräsigter Weg 60388 Frankfurt,50.1564784,8.7653283,2874,Gräsigter Weg,,,,,,16,Bergen-Enkheim,680,16.83,16,Ost,18.0,60388,highway,way
Am Ginnheimer Wäldchen 60431 Frankfurt,50.1452802,8.6437726,3145,Am Ginnheimer Wäldchen,ungerade,3,,7,,9,Ginnheim,441,9.67,9,Nord,14.0,60431,leisure,way
Willmannstraße 60386 Frankfurt,50.1250815,8.7686461,2527,Willmannstraße,,,,,,11,Fechenheim,510,11.77,11,Ost,18.0,60386,highway,way
Kattowitzer Straße 65933 Frankfurt,50.103999,8.5929911,1387,Kattowitzer Straße,,,,,,6,Griesheim,552,6.41,6A,Gallus,16.0,65933,,
Breite Gasse 60313 Frankfurt,50.1139784,8.6909462,491,Breite Gasse,,,,,,1,Innenstadt,70,1.01,1,Ost,1.0,60313,,
Casparistraße 60435 Frankfurt,50.1432341,8.6850853,595,Casparistraße,,,,,,10,Eckenheim,461,10.72,10,Dornbusch,12.0,60435,amenity,node
Sontraer Straße 60386 Frankfurt,50.130115,8.7439066,2253,Sontraer Straße,,,,,,11,Fechenheim,510,11.77,11,Ost,18.0,60386,highway,way
Berger Marktplatz 60388 Frankfurt,50.1575829,8.7580629,2860,Berger Marktplatz,,,,,,16,Bergen-Enkheim,680,16.83,16,Ost,18.0,60388,,
Niedernhausener Straße 60326 Frankfurt,50.1073089,8.632143,3191,Niedernhausener Straße,ungerade,,,,,1,Gallus,162,1.07,1,Gallus,4.0,60326,,
Taläckerstraße 65933 Frankfurt,50.0923969,8.6021419,2323,Taläckerstraße,,,,,,6,Griesheim,551,6.39,6A,Gallus,16.0,65933,,
Georg-Heck-Weg 65934 Frankfurt,50.1061491,8.5842601,3165,Georg-Heck-Weg,,,,,,6,Nied,562,6.43,6A,Höchst,16.0,65934,highway,way
Lohrpark 60389 Frankfurt,50.1506973,8.729325247182611,3719,Lohrpark,,,,,,11,Seckbach,390,11.75,11,Ost,6.0,60389,highway,way
Stichgärtenstraße 65934 Frankfurt,50.0989414,8.5648772,2303,Stichgärtenstraße,,,,,,6,Nied,561,6.42,6A,Höchst,16.0,65934,highway,way
Sigmund-Freud-Straße 60435 Frankfurt,50.1552119,8.6860901,2231,Sigmund-Freud-Straße,,,,,,10,Eckenheim,461,10.72,10,Dornbusch,12.0,60435,highway,way
Auf dem Mühlberg 60599 Frankfurt,50.0991686,8.7031925,290,Auf dem Mühlberg,,,,,,5,Sachsenhausen-S.,332,5.29,5A,Sachsenhausen,8.0,60599,highway,way
Lahnstraße 60326 Frankfurt,50.1007841,8.6319488,1532,Lahnstraße,,,,,,1,Gallus,153,1.05,1,Gallus,4.0,60326,,
Stieglitzenweg 65929 Frankfurt,50.1041675,8.5330946,2304,Stieglitzenweg,,,,,,6,Unterliederbach,621,6.51,6C,Höchst,17.0,65929,highway,way
Taunusanlage 60329 Frankfurt,50.1109328,8.6704442,2329,Taunusanlage,ungerade,1,,11,,1,Bahnhofsviertel,90,1.03,1,Gallus,4.0,60329,highway,way
Monchstraße 60437 Frankfurt,50.1837839,8.6605341,1737,Monchstraße,,,,,,10,Bonames,491,10.7,10,Nord,14.0,60437,,
Voelckerstraße 60322 Frankfurt,50.1311921,8.6749647,2411,Voelckerstraße,,,,,,3,Nordend-West,203,3.16,3,Dornbusch,3.0,60322,highway,way
Margarete-Steiff-Straße 60438 Frankfurt,50.1784931,8.6391318,3406,Margarete-Steiff-Straße,,,,,,12,Kalbach-Riedberg,651,12.79,12,Nord,14.0,60438,,
An den Gerlachswiesen 60388 Frankfurt,50.1499677,8.7598387,2851,An den Gerlachswiesen,,,,,,16,Bergen-Enkheim,680,16.83,16,Ost,18.0,60388,,
Stargarder Straße 60388 Frankfurt,50.1484521,8.7551242,2918,Stargarder Straße,,,,,,16,Bergen-Enkheim,680,16.83,16,Ost,18.0,60388,leisure,way
Scherbiusstraße 60486 Frankfurt,50.1148301,8.6304112,2120,Scherbiusstraße,,,,,,2,Bockenheim,163,2.15,2,Bockenheim,13.0,60486,,
Am Zedernholz 60437 Frankfurt,50.1855833,8.6525048,2678,Am Zedernholz,,,,,,12,Kalbach-Riedberg,650,12.79,12,Nord,14.0,60437,highway,way
Bachstraße 60437 Frankfurt,50.188617,8.6344372,2682,Bachstraße,,,,,,12,Kalbach-Riedberg,650,12.79,12,Nord,14.0,60437,highway,way
Ludwig-Richter-Straße 60433 Frankfurt,50.1543533,8.6610087,1623,Ludwig-Richter-Straße,,,,,,9,Eschersheim,452,9.66,9,Dornbusch,12.0,60433,,
Herrenapfelstraße 60435 Frankfurt,50.1531891,8.7012502,3386,Herrenapfelstraße,,,,,,10,Preungesheim,470,10.73,10,Dornbusch,12.0,60435,highway,way
Karmelitergasse 60311 Frankfurt,50.1097074,8.6784442,1379,Karmelitergasse,,,,,,1,Altstadt,10,1.01,1,Ost,1.0,60311,highway,way
Weilbrunnstraße 60435 Frankfurt,50.1547604,8.6932755,2466,Weilbrunnstraße,,,,,,10,Preungesheim,470,10.73,10,Dornbusch,12.0,60435,amenity,node
Kandelstraße 60528 Frankfurt,50.085872,8.6435846,1356,Kandelstraße,,,,,,5,Niederrad,371,5.35,5B,Sachsenhausen,10.0,60528,highway,way
Herchenhainer Weg 60435 Frankfurt,50.1546668,8.6905939,2799,Herchenhainer Weg,,,,,,10,Preungesheim,470,10.73,10,Dornbusch,12.0,60435,highway,way
Odina-Bott-Platz 60323 Frankfurt,50.1182175,8.663368384290354,3357,Odina-Bott-Platz,,,,,,2,Westend-Süd,180,2.1,2,Bockenheim,3.0,60323,highway,way
Kleiner Hirschgraben 60311 Frankfurt,50.1121941,8.6787921,1441,Kleiner Hirschgraben,ungerade,,,,,1,Altstadt,10,1.01,1,Ost,1.0,60311,highway,way
Gutleutstraße 60329 Frankfurt,50.1066772,8.6699457,1031,Gutleutstraße,ungerade,1,,75,,1,Bahnhofsviertel,90,1.03,1,Gallus,4.0,60329,,
Humperdinckstraße 60598 Frankfurt,50.0898784,8.6670757,1239,Humperdinckstraße,,,,,,5,Sachsenhausen-S.,325,5.34,5A,Sachsenhausen,10.0,60598,highway,way
Karl-König-Weg 65929 Frankfurt,50.1058698,8.5352111,1366,Karl-König-Weg,,,,,,6,Unterliederbach,621,6.51,6C,Höchst,17.0,65929,,
Kehreinstraße 65934 Frankfurt,50.0988857,8.5706068,1394,Kehreinstraße,,,,,,6,Nied,561,6.42,6A,Höchst,16.0,65934,highway,way
Emmy-Klieneberger-Nobel-Straße 60439 Frankfurt,50.1710474,8.6288229,3751,Emmy-Klieneberger-Nobel-Straße,,,,,,8,Niederursel,484,8.63,8,Nord,14.0,60439,highway,way
Auerfeldstraße 60389 Frankfurt,50.1454338,8.7199612,282,Auerfeldstraße,,,,,,11,Seckbach,390,11.75,11,Ost,6.0,60389,highway,way
Am Flughafen 60549 Frankfurt,50.0540704,8.5752451,3626,Am Flughafen,,,,,,5,Flughafen,329,5.34,5A,Sachsenhausen,19.0,60549,highway,way
Brüder-Grimm-Straße 60314 Frankfurt,50.1173469,8.7060504,515,Brüder-Grimm-Straße,ungerade,3,,13,,4,Ostend,251,4.25,4,Ost,5.0,60314,highway,way
An den Kaiserpappeln 60437 Frankfurt,50.2035184,8.6811422,3655,An den Kaiserpappeln,,,,,,15,Nieder-Eschbach,670,15.82,15,Nord,14.0,60437,highway,way
Große Fischerstraße 60311 Frankfurt,50.1097558,8.6856055,992,Große Fischerstraße,,,,,,1,Altstadt,10,1.01,1,Ost,1.0,60311,,
Hans-Leistikow-Straße 60438 Frankfurt,50.1810729,8.6199967,3636,Hans-Leistikow-Straße,,,,,,12,Kalbach-Riedberg,651,12.79,12,Nord,14.0,60438,,
Anna-Lindh-Allee 60437 Frankfurt,50.206913,8.6592616,3544,Anna-Lindh-Allee,,,,,,15,Nieder-Eschbach,670,15.82,15,Nord,14.0,60437,amenity,node
Holzweg 60488 Frankfurt,50.2125055,8.6716855,2581,Holzweg,,,,,,7,Praunheim,422,7.59,7,Bockenheim,11.0,60488,,
Neue Mainzer Straße 60313 Frankfurt,50.1141582,8.6722704,1778,Neue Mainzer Straße,ungerade,85,,,,1,Innenstadt,50,1.02,1,Ost,1.0,60313,highway,relation
Nell-Breuning-Straße 60596 Frankfurt,50.097161,8.6793443,3641,Nell-Breuning-Straße,,,,,,5,Sachsenhausen-N.,322,5.33,5A,Sachsenhausen,8.0,60596,,
Romroder Straße 60389 Frankfurt,50.1467261,8.7265513,2038,Romroder Straße,,,,,,11,Seckbach,390,11.75,11,Ost,6.0,60389,highway,way
Ziegelei-Allee 60488 Frankfurt,50.1447528,8.6069527,3680,Ziegelei-Allee,,,,,,7,Praunheim,422,7.59,7,Bockenheim,14.0,60488,,
Hans-Herkommer-Ring 60438 Frankfurt,50.1746213,8.621517,3678,Hans-Herkommer-Ring,,,,,,12,Kalbach-Riedberg,651,12.79,12,Nord,14.0,60438,highway,way
Langobardenweg 65929 Frankfurt,50.1137776,8.5387451,1545,Langobardenweg,,,,,,6,Unterliederbach,622,6.52,6C,Höchst,17.0,65929,,
Am Ginnheimer Hang 60431 Frankfurt,50.1462664,8.6473793,3027,Am Ginnheimer Hang,,,,,,9,Ginnheim,441,9.67,9,Nord,12.0,60431,,
Gerichtsstraße 60313 Frankfurt,50.116155,8.6900576,927,Gerichtsstraße,,,,,,1,Innenstadt,70,1.01,1,Ost,1.0,60313,,
Schwarzbachstraße 60529 Frankfurt,50.0857407,8.583406,2194,Schwarzbachstraße,,,,,,6,Schwanheim,531,6.38,6A,Sachsenhausen,10.0,60529,highway,way
Bilsteinweg 60435 Frankfurt,50.1452124,8.6979626,429,Bilsteinweg,,,,,,10,Preungesheim,470,10.73,10,Dornbusch,12.0,60435,,
Max-Kirschner-Weg 60439 Frankfurt,50.1645612,8.6351846,3503,Max-Kirschner-Weg,,,,,,8,Heddernheim,431,8.61,8,Nord,14.0,60439,leisure,way
Kirchbergweg 60389 Frankfurt,50.1492788,8.7412361,3688,Kirchbergweg,,,,,,11,Seckbach,390,11.75,11,Ost,6.0,60389,,
Tagetesweg 60433 Frankfurt,50.1657684,8.6855814,3378,Tagetesweg,,,,,,10,Frankfurter Berg,492,10.71,10,Nord,14.0,60433,highway,way
Fontanestraße 60431 Frankfurt,50.1493841,8.6623225,825,Fontanestraße,,,,,,9,Dornbusch,442,9.68,9,Dornbusch,12.0,60431,highway,way
Matisseweg 60438 Frankfurt,50.1765829,8.6444776,3326,Matisseweg,,,,,,12,Kalbach-Riedberg,651,12.79,12,Nord,14.0,60438,,
Klapperfeldstraße 60313 Frankfurt,50.1149246,8.6900897,1420,Klapperfeldstraße,,,,,,1,Innenstadt,70,1.01,1,Ost,1.0,60313,,
Arndtstraße 60325 Frankfurt,50.118857,8.6606429,273,Arndtstraße,ungerade,,,,,2,Westend-Süd,170,2.11,2,Bockenheim,13.0,60325,,
Oberer Kalbacher Weg 60437 Frankfurt,50.1834656,8.6648206,1832,Oberer Kalbacher Weg,,,,,,10,Bonames,491,10.7,10,Nord,14.0,60437,highway,way
Reichelstraße 60431 Frankfurt,50.1391961,8.6430194,1982,Reichelstraße,,,,,,9,Ginnheim,441,9.67,9,Nord,12.0,60431,highway,way
Richard-Weidlich-Platz 65931 Frankfurt,50.087905,8.5111985,2010,Richard-Weidlich-Platz,,,,,,6,Sindlingen,602,6.48,6B,Höchst,17.0,65931,,
Schwanthalerstraße 60596 Frankfurt,50.1001207,8.6789844,2193,Schwanthalerstraße,ungerade,37,,41,,5,Sachsenhausen-N.,324,5.32,5A,Sachsenhausen,8.0,60596,,
Briandring 60598 Frankfurt,50.0799274,8.6760829,504,Briandring,,,,,,5,Sachsenhausen-S.,323,5.3,5A,Sachsenhausen,8.0,60598,,
Krautgartenweg 60439 Frankfurt,50.1676314,8.6294366,1493,Krautgartenweg,,,,,,8,Niederursel,481,8.63,8,Nord,14.0,60439,,
Gräfstraße 60486 Frankfurt,50.117845,8.6494313,973,Gräfstraße,ungerade,39,,83,,2,Bockenheim,341,2.13,2,Bockenheim,13.0,60486,,
Morsestraße 60486 Frankfurt,50.119685,8.625594,2613,Morsestraße,,,,,,7,Bockenheim,343,7.57,2,Bockenheim,11.0,60486,,
Kiesstraße 60486 Frankfurt,50.1180963,8.6480591,1408,Kiesstraße,,,,,,2,Bockenheim,341,2.13,2,Bockenheim,13.0,60486,highway,way
Hafenpark 60314 Frankfurt,50.1081109,8.707651159049277,3657,Hafenpark,,,,,,4,Ostend,261,4.27,4,Ost,5.0,60314,highway,way
Kennedyallee 60598 Frankfurt,50.0886,8.6600064,1400,Kennedyallee,ungerade,151,,,,5,Sachsenhausen-S.,325,5.34,5A,Sachsenhausen,10.0,60598,highway,way
Am Pfingstlohr 60389 Frankfurt,50.1502693,8.7250335,162,Am Pfingstlohr,,,,,,11,Seckbach,390,11.75,11,Ost,6.0,60389,,
Heidetränkstraße 60439 Frankfurt,50.1650116,8.628471,1112,Heidetränkstraße,,,,,,8,Niederursel,481,8.63,8,Nord,14.0,60439,,
Tiroler Straße 60596 Frankfurt,50.0941305,8.6748227,2362,Tiroler Straße,,,,,,5,Sachsenhausen-N.,322,5.33,5A,Sachsenhausen,8.0,60596,,
Fried-Lübbecke-Anlage 60311 Frankfurt,50.1100254,8.681372371883523,3021,Fried-Lübbecke-Anlage,,,,,,1,Altstadt,10,1.01,1,Ost,1.0,60311,,
Hahnstraße 60528 Frankfurt,50.0790749,8.6341618,1059,Hahnstraße,,,,,,5,Niederrad,373,5.36,5B,Sachsenhausen,10.0,60528,highway,way
Emser Straße 60486 Frankfurt,50.1165156,8.6432187,730,Emser Straße,,,,,,2,Bockenheim,341,2.13,2,Bockenheim,13.0,60486,highway,way
Bremer Straße 60322 Frankfurt,50.1280402,8.6729197,496,Bremer Straße,gerade,,,,,2,Westend-Nord,191,2.09,2,Dornbusch,3.0,60322,,
Max-Bromme-Steig 60386 Frankfurt,50.126767,8.7201314,2956,Max-Bromme-Steig,,,,,,4,Bornheim,281,4.24,4,Ost,6.0,60386,,
Sieringstraße 65929 Frankfurt,50.109586,8.540966,2229,Sieringstraße,,,,,,6,Unterliederbach,622,6.52,6C,Höchst,17.0,65929,highway,way
Roßmarkt 60311 Frankfurt,50.11225945,8.676652392870064,2048,Roßmarkt,ungerade,,,,,1,Innenstadt,40,1.03,1,Ost,1.0,60311,,
Zentmarkweg 60489 Frankfurt,50.1251839,8.6043216,2559,Zentmarkweg,,,,,,7,Rödelheim,402,7.56,7,Bockenheim,11.0,60489,highway,way
Ludwig-Tieck-Straße 60431 Frankfurt,50.1503829,8.6553903,1629,Ludwig-Tieck-Straße,ungerade,,,,,9,Ginnheim,441,9.67,9,Nord,12.0,60431,place,way
Marie-Juchacz-Platz 60386 Frankfurt,50.12875175,8.734463372530563,3757,Marie-Juchacz-Platz,,,,,,11,Riederwald,262,11.76,11,Ost,18.0,60386,highway,way
Hasselhorstweg 60599 Frankfurt,50.0870798,8.7013949,1091,Hasselhorstweg,,,,,,5,Sachsenhausen-S.,332,5.29,5A,Sachsenhausen,8.0,60599,highway,way
Elsa-Brändström-Platz 60325 Frankfurt,50.1141053,8.6642914,1022,Elsa-Brändström-Platz,,,,,,2,Westend-Süd,100,2.11,2,Bockenheim,13.0,60325,highway,way
Duisbergstraße 60320 Frankfurt,50.1329592,8.6719735,676,Duisbergstraße,,,,,,2,Westend-Nord,192,2.09,2,Dornbusch,12.0,60320,highway,way
Bertramswiese 60320 Frankfurt,50.1370085,8.6774099,414,Bertramswiese,,,,,,3,Nordend-West,202,3.16,3,Dornbusch,12.0,60320,highway,way
Berger Straße 60385 Frankfurt,50.1266517,8.7084317,396,Berger Straße,ungerade,107,,179,,4,Bornheim,240,4.23,4,Ost,6.0,60385,,
Wilhelmshöher Straße 60389 Frankfurt,50.140691,8.722919,2524,Wilhelmshöher Straße,,,,,,11,Seckbach,390,11.75,11,Ost,6.0,60389,,
Kätcheslachpark 60438 Frankfurt,50.18081525,8.632037377411104,3471,Kätcheslachpark,,,,,,12,Kalbach-Riedberg,651,12.79,12,Nord,14.0,60438,highway,way
Bendelgasse 60439 Frankfurt,50.1586936,8.6488966,393,Bendelgasse,,,,,,8,Heddernheim,431,8.61,8,Nord,14.0,60439,highway,way
Robert-Dißmann-Straße 65936 Frankfurt,50.1232615,8.5681758,2634,Robert-Dißmann-Straße,,,,,,6,Sossenheim,632,6.54,6C,Höchst,17.0,65936,highway,way
Ernst-May-Platz 60385 Frankfurt,50.1259184,8.7160726,3233,Ernst-May-Platz,,,,,,4,Bornheim,281,4.24,4,Ost,6.0,60385,highway,way
Ludwig-Ruppel-Straße 60437 Frankfurt,50.1810475,8.659826,3014,Ludwig-Ruppel-Straße,,,,,,10,Bonames,491,10.7,10,Nord,14.0,60437,,
Schlitzer Straße 60386 Frankfurt,50.130813,8.7463883,2141,Schlitzer Straße,,,,,,11,Fechenheim,510,11.77,11,Ost,18.0,60386,highway,way
Am Honigberg 60435 Frankfurt,50.1715311,8.6971445,128,Am Honigberg,,,,,,10,Berkersheim,500,10.74,10,Nord,14.0,60435,highway,way
Böhmerstraße 60322 Frankfurt,50.1231367,8.6734233,461,Böhmerstraße,,,,,,2,Westend-Nord,191,2.09,2,Dornbusch,3.0,60322,,
Georg-Speyer-Straße 60487 Frankfurt,50.1288312,8.6429176,919,Georg-Speyer-Straße,,,,,,2,Bockenheim,362,2.12,2,Bockenheim,13.0,60487,,
Therese-Herger-Anlage 65934 Frankfurt,50.1073683,8.5845225,3166,Therese-Herger-Anlage,,,,,,6,Nied,562,6.43,6A,Höchst,16.0,65934,highway,way
Töplitzstraße 60596 Frankfurt,50.0966923,8.6657521,2366,Töplitzstraße,,,,,,5,Sachsenhausen-N.,322,5.33,5A,Sachsenhausen,8.0,60596,highway,way
Bernhard-Grzimek-Allee 60316 Frankfurt,50.1144744,8.7003558,3548,Bernhard-Grzimek-Allee,ungerade,,,,,4,Ostend,251,4.25,4,Ost,5.0,60316,highway,way
Birminghamstraße 65934 Frankfurt,50.1043841,8.5752552,2605,Birminghamstraße,,,,,,6,Nied,562,6.43,6A,Höchst,16.0,65934,highway,way
Meier-Seligmann-Weg 60388 Frankfurt,50.159031,8.7629897,3286,Meier-Seligmann-Weg,,,,,,16,Bergen-Enkheim,680,16.83,16,Ost,18.0,60388,,
Bürgerstraße 60437 Frankfurt,50.1870967,8.702308,2713,Bürgerstraße,,,,,,14,Harheim,660,14.81,14,Nord,14.0,60437,,
West-Höchster Straße 65931 Frankfurt,50.0914163,8.5043966,2494,West-Höchster Straße,ungerade,25,,,,6,Zeilsheim,604,6.49,6B,Höchst,17.0,65931,,
An der Mainkur 60386 Frankfurt,50.1347249,8.7687191,237,An der Mainkur,,,,,,11,Fechenheim,510,11.77,11,Ost,18.0,60386,highway,way
Bettinaplatz 60325 Frankfurt,50.1139073,8.6569039,418,Bettinaplatz,,,,,,2,Westend-Süd,170,2.11,2,Bockenheim,13.0,60325,highway,way
Holbeinsteg 60596 Frankfurt,50.104799,8.6708819,3168,Holbeinsteg,,,,,,5,Sachsenhausen-N.,321,5.32,5A,Sachsenhausen,4.0,60596,highway,relation
Wiener Straße 60599 Frankfurt,50.0982374,8.7294361,2503,Wiener Straße,,,,,,5,Oberrad,380,5.28,5A,Sachsenhausen,8.0,60599,,
Georg-Treser-Straße 60599 Frankfurt,50.0970465,8.7156836,1276,Georg-Treser-Straße,,,,,,5,Oberrad,380,5.28,5A,Sachsenhausen,8.0,60599,highway,way
Domstraße 60311 Frankfurt,50.1116841,8.6844553,655,Domstraße,,,,,,1,Altstadt,10,1.01,1,Ost,1.0,60311,,
Justinuskirchstraße 65929 Frankfurt,50.1011376,8.5449911,1344,Justinuskirchstraße,,,,,,6,Höchst,591,6.46,6C,Höchst,17.0,65929,highway,way
Sinaipark 60433 Frankfurt,50.14541795,8.673948402240256,3153,Sinaipark,,,,,,9,Dornbusch,462,9.69,9,Dornbusch,12.0,60433,,
Teutonenweg 65929 Frankfurt,50.114346,8.5434334,2336,Teutonenweg,,,,,,6,Unterliederbach,622,6.52,6C,Höchst,17.0,65929,,
Tannenwaldstraße 60529 Frankfurt,50.0838215,8.5774465,2325,Tannenwaldstraße,,,,,,6,Schwanheim,531,6.38,6A,Sachsenhausen,10.0,60529,,
Vilbeler Landstraße 60388 Frankfurt,50.1449916,8.7512298,2409,Vilbeler Landstraße,ungerade,41,,91,,16,Bergen-Enkheim,680,16.83,16,Ost,18.0,60388,,
Karpfenweg 60327 Frankfurt,50.0991894,8.6616454,3427,Karpfenweg,,,,,,1,Gutleutviertel,151,1.04,1,Gallus,4.0,60327,,
Florstädter Straße 60385 Frankfurt,50.1278217,8.7144066,818,Florstädter Straße,,,,,,4,Bornheim,281,4.24,4,Ost,6.0,60385,highway,way
Wildunger Straße 60487 Frankfurt,50.1219927,8.6487816,2514,Wildunger Straße,,,,,,2,Bockenheim,361,2.12,2,Bockenheim,13.0,60487,,
Lortzingstraße 60318 Frankfurt,50.1271774,8.6901855,1614,Lortzingstraße,ungerade,1,,3,,3,Nordend-West,211,3.19,3,Ost,3.0,60318,,
Friedrich-Kahl-Straße 60489 Frankfurt,50.1316533,8.5927432,868,Friedrich-Kahl-Straße,,,,,,7,Rödelheim,401,7.55,7,Bockenheim,11.0,60489,,
Propst-Goebels-Weg 60389 Frankfurt,50.143345,8.7236239,3219,Propst-Goebels-Weg,,,,,,11,Seckbach,390,11.75,11,Ost,6.0,60389,,
Diezer Straße 60439 Frankfurt,50.157414,8.6482595,644,Diezer Straße,,,,,,8,Heddernheim,431,8.61,8,Nord,14.0,60439,,
Am Höllenberg 60437 Frankfurt,50.1865126,8.6337032,3280,Am Höllenberg,,,,,,12,Kalbach-Riedberg,650,12.79,12,Nord,14.0,60437,amenity,node
Großer Hasenpfad 60598 Frankfurt,50.0928216,8.685943,999,Großer Hasenpfad,,,,,,5,Sachsenhausen-S.,323,5.3,5A,Sachsenhausen,8.0,60598,highway,way
Erlenbacher Straße 60389 Frankfurt,50.1280331,8.7005297,746,Erlenbacher Straße,,,,,,3,Nordend-Ost,222,3.18,3,Ost,6.0,60389,highway,way
Schleusenweg 60528 Frankfurt,50.0897856,8.6501826,2136,Schleusenweg,,,,,,5,Niederrad,371,5.35,5B,Sachsenhausen,10.0,60528,highway,way
Elkenbachstraße 60316 Frankfurt,50.1217955,8.6948306,716,Elkenbachstraße,ungerade,,,,,3,Nordend-Ost,130,3.2,3,Ost,3.0,60316,highway,way
Fabriciusstraße 65933 Frankfurt,50.0931659,8.6021362,769,Fabriciusstraße,ungerade,1,,11,,6,Griesheim,541,6.39,6A,Gallus,16.0,65933,,
Nürburgstraße 60529 Frankfurt,50.0879297,8.5763801,1826,Nürburgstraße,,,,,,6,Schwanheim,531,6.38,6A,Sachsenhausen,10.0,60529,,
Breitenbachstraße 60487 Frankfurt,50.1260039,8.6327888,493,Breitenbachstraße,,,,,,7,Bockenheim,343,7.57,2,Bockenheim,11.0,60487,highway,way
Freudenberger Straße 60599 Frankfurt,50.0957992,8.6980777,859,Freudenberger Straße,,,,,,5,Sachsenhausen-S.,332,5.29,5A,Sachsenhausen,8.0,60599,highway,way
Weckmarkt 60311 Frankfurt,50.1103424,8.6859512,2456,Weckmarkt,,,,,,1,Altstadt,10,1.01,1,Ost,1.0,60311,,
An der Steinmühle 65934 Frankfurt,50.1031401,8.5584285,248,An der Steinmühle,,,,,,6,Nied,561,6.42,6A,Höchst,17.0,65934,,
Amaliestraße 60388 Frankfurt,50.1538737,8.7448741,3204,Amaliestraße,,,,,,16,Bergen-Enkheim,680,16.83,16,Ost,18.0,60388,highway,way
Wolfsgangstraße 60323 Frankfurt,50.1229894,8.6663231,2543,Wolfsgangstraße,gerade,160,,,,2,Westend-Nord,191,2.09,2,Dornbusch,3.0,60323,highway,way
Erlenseer Straße 60388 Frankfurt,50.1573438,8.759485,2870,Erlenseer Straße,,,,,,16,Bergen-Enkheim,680,16.83,16,Ost,18.0,60388,,
An der Dammheide 60486 Frankfurt,50.1172719,8.6301659,230,An der Dammheide,,,,,,2,Bockenheim,342,2.14,2,Bockenheim,13.0,60486,,
Am Seedamm 60489 Frankfurt,50.1279018,8.5994928,2954,Am Seedamm,,,,,,7,Rödelheim,402,7.56,7,Bockenheim,11.0,60489,,
Am Weidenbaum 65933 Frankfurt,50.091021,8.6127716,203,Am Weidenbaum,,,,,,6,Griesheim,541,6.39,6A,Gallus,16.0,65933,highway,way
Katherine-Stinson-Weg 60549 Frankfurt,50.0545276,8.5935322,3739,Katherine-Stinson-Weg,,,,,,5,Flughafen,327,5.34,5A,Sachsenhausen,19.0,60549,highway,way
Oeserstraße 65934 Frankfurt,50.104429,8.5746197,1858,Oeserstraße,ungerade,1,,25,,6,Nied,561,6.42,6A,Höchst,16.0,65934,,
Kappusstraße 65936 Frankfurt,50.1199635,8.5675798,1360,Kappusstraße,,,,,,6,Sossenheim,632,6.54,6C,Höchst,17.0,65936,,
Wilhelm-Epstein-Straße 60431 Frankfurt,50.1368589,8.6470355,2517,Wilhelm-Epstein-Straße,ungerade,5,,93,,9,Ginnheim,441,9.67,9,Nord,12.0,60431,,
Kettelerallee 60385 Frankfurt,50.1237632,8.7170019,1404,Kettelerallee,,,,,,4,Bornheim,281,4.24,4,Ost,6.0,60385,highway,way
Leberecht-Migge-Anlage 60438 Frankfurt,50.1782914,8.6221434,3665,Leberecht-Migge-Anlage,,,,,,12,Kalbach-Riedberg,651,12.79,12,Nord,14.0,60438,highway,way
Schottener Straße 60435 Frankfurt,50.1514459,8.6869775,2168,Schottener Straße,,,,,,10,Eckenheim,461,10.72,10,Dornbusch,12.0,60435,highway,way
Hullach 60437 Frankfurt,50.1890196,8.6394037,2690,Hullach,,,,,,12,Kalbach-Riedberg,650,12.79,12,Nord,14.0,60437,highway,way
Am Traubengarten 60435 Frankfurt,50.1744688,8.6962748,196,Am Traubengarten,,,,,,10,Berkersheim,500,10.74,10,Nord,14.0,60435,highway,way
Robert-Mayer-Straße 60486 Frankfurt,50.1174756,8.6432047,2022,Robert-Mayer-Straße,ungerade,17,,63,,2,Bockenheim,341,2.13,2,Bockenheim,13.0,60486,,
Norbert-Wollheim-Platz 60323 Frankfurt,50.12515835000001,8.668969096612951,3695,Norbert-Wollheim-Platz,,,,,,2,Westend-Nord,191,2.09,2,Dornbusch,3.0,60323,highway,way
Weizengasse 65929 Frankfurt,50.1109259,8.5310315,2476,Weizengasse,,,,,,6,Unterliederbach,621,6.51,6C,Höchst,17.0,65929,,
Fliederweg 60433 Frankfurt,50.1654711,8.6745252,812,Fliederweg,,,,,,10,Frankfurter Berg,492,10.71,10,Nord,14.0,60433,,
Am Schießrain 60389 Frankfurt,50.1443444,8.7282552,177,Am Schießrain,,,,,,11,Seckbach,390,11.75,11,Ost,6.0,60389,highway,way
Am Brennhaus 65933 Frankfurt,50.0936955,8.6102516,91,Am Brennhaus,,,,,,6,Griesheim,541,6.39,6A,Gallus,16.0,65933,,
Robert-Blum-Straße 60385 Frankfurt,50.1167674,8.7112017,2019,Robert-Blum-Straße,,,,,,4,Ostend,252,4.25,4,Ost,5.0,60385,,
Zuckschwerdtstraße 65929 Frankfurt,50.1047547,8.5517015,2572,Zuckschwerdtstraße,ungerade,1,,45,,6,Höchst,580,6.45,6C,Höchst,17.0,65929,highway,way
Athener Straße 60327 Frankfurt,50.108373,8.6504257,3527,Athener Straße,,,,,,1,Gallus,161,1.06,1,Gallus,4.0,60327,leisure,way
Weißfrauenstraße 60311 Frankfurt,50.1096581,8.6774226,2474,Weißfrauenstraße,ungerade,,,,,1,Altstadt,10,1.01,1,Ost,1.0,60311,highway,way
Mittlerer Schafhofweg 60598 Frankfurt,50.0904656,8.6805087,1732,Mittlerer Schafhofweg,,,,,,5,Sachsenhausen-S.,323,5.3,5A,Sachsenhausen,8.0,60598,,
Sossenheimer Weg 65936 Frankfurt,50.1156017,8.5569705,2257,Sossenheimer Weg,gerade,170,,198,,6,Sossenheim,631,6.53,6C,Höchst,17.0,65936,highway,way
Niersteiner Straße 60598 Frankfurt,50.0920812,8.6820328,1816,Niersteiner Straße,,,,,,5,Sachsenhausen-S.,323,5.3,5A,Sachsenhausen,8.0,60598,highway,way
Neunkircher Weg 60529 Frankfurt,50.0834434,8.5733655,1791,Neunkircher Weg,,,,,,6,Schwanheim,531,6.38,6A,Sachsenhausen,10.0,60529,,
Bernhard-Becker-Straße 60389 Frankfurt,50.1380262,8.7002118,3543,Bernhard-Becker-Straße,,,,,,3,Nordend-Ost,222,3.18,3,Ost,6.0,60389,,
Margarete-Schütte-Lihotzky-Anlage 60488 Frankfurt,50.1402971,8.610614067910795,3342,Margarete-Schütte-Lihotzky-Anlage,,,,,,7,Praunheim,422,7.59,7,Bockenheim,14.0,60488,highway,way
Rümelinstraße 60386 Frankfurt,50.1289924,8.732129,2067,Rümelinstraße,,,,,,11,Riederwald,262,11.76,11,Ost,18.0,60386,,
Habsburgerallee 60385 Frankfurt,50.1196894,8.7059025,1037,Habsburgerallee,ungerade,1,,1a,a,4,Bornheim,240,4.23,4,Ost,3.0,60385,highway,way
Brand 65929 Frankfurt,50.0998858,8.5476214,484,Brand,,,,,,6,Höchst,591,6.46,6C,Höchst,17.0,65929,highway,way
Wasgaustraße 65929 Frankfurt,50.1106234,8.5376569,2444,Wasgaustraße,,,,,,6,Unterliederbach,621,6.51,6C,Höchst,17.0,65929,,
Brüningstraße 65929 Frankfurt,50.0975652,8.5434644,518,Brüningstraße,ungerade,3,,27,,6,Höchst,591,6.46,6C,Höchst,17.0,65929,,
Auf der Platte 60435 Frankfurt,50.1487383,8.6933042,298,Auf der Platte,,,,,,10,Preungesheim,470,10.73,10,Dornbusch,12.0,60435,highway,way
Okrifteler Straße 65931 Frankfurt,50.0774387,8.5171422,1863,Okrifteler Straße,,,,,,6,Sindlingen,601,6.47,6B,Höchst,17.0,65931,highway,way
Herbartstraße 60316 Frankfurt,50.1215067,8.6962352,1143,Herbartstraße,,,,,,3,Nordend-Ost,230,3.2,3,Ost,3.0,60316,highway,way
Gangstraße 60388 Frankfurt,50.1566376,8.7529397,2873,Gangstraße,,,,,,16,Bergen-Enkheim,680,16.83,16,Ost,18.0,60388,,
Ostpark 60385 Frankfurt,50.11988655,8.722473844163996,3722,Ostpark,,,,,,4,Ostend,261,4.27,4,Ost,5.0,60385,,
Hammarskjöldring 60439 Frankfurt,50.1625409,8.6290849,1070,Hammarskjöldring,,,,,,8,Niederursel,481,8.63,8,Nord,14.0,60439,,
Liebfrauenstraße 60313 Frankfurt,50.1129347,8.6811591,1583,Liebfrauenstraße,ungerade,1,,3,,1,Altstadt,10,1.01,1,Ost,1.0,60313,highway,way
Melanchthonplatz 60599 Frankfurt,50.0979592,8.72825719018789,1708,Melanchthonplatz,,,,,,5,Oberrad,380,5.28,5A,Sachsenhausen,8.0,60599,highway,way
Friedrich-Manz-Weg 60386 Frankfurt,50.1284521,8.7339534,870,Friedrich-Manz-Weg,,,,,,11,Riederwald,262,11.76,11,Ost,18.0,60386,,
Herborner Straße 60439 Frankfurt,50.1564757,8.6481345,1147,Herborner Straße,,,,,,8,Heddernheim,431,8.61,8,Nord,14.0,60439,highway,way
Am Wiesenhof 60529 Frankfurt,50.0828542,8.6169862,211,Am Wiesenhof,,,,,,6,Schwanheim,532,6.37,6A,Sachsenhausen,10.0,60529,,
Mecklenburger Straße 60437 Frankfurt,50.2063676,8.7032607,2797,Mecklenburger Straße,,,,,,13,Nieder-Erlenbach,640,13.8,13,Nord,14.0,60437,,
Am Berger Spielhaus 60388 Frankfurt,50.1552657,8.7540024,2838,Am Berger Spielhaus,,,,,,16,Bergen-Enkheim,680,16.83,16,Ost,18.0,60388,,
Wertheimer Straße 60599 Frankfurt,50.0950279,8.6962764,2485,Wertheimer Straße,,,,,,5,Sachsenhausen-S.,332,5.29,5A,Sachsenhausen,8.0,60599,,
Bäckergasse 60594 Frankfurt,50.105976,8.6855982,326,Bäckergasse,,,,,,5,Sachsenhausen-N.,300,5.31,5A,Sachsenhausen,8.0,60594,,
Eschenheimer Anlage 60316 Frankfurt,50.1184913,8.6888797,755,Eschenheimer Anlage,ungerade,1,,7,,3,Nordend-West,120,3.21,3,Ost,3.0,60316,highway,way
Henriette-Fürth-Straße 60529 Frankfurt,50.0846465,8.5927959,1139,Henriette-Fürth-Straße,,,,,,6,Schwanheim,532,6.37,6A,Sachsenhausen,10.0,60529,,
Wehrstraße 60599 Frankfurt,50.1019636,8.7233049,2461,Wehrstraße,,,,,,5,Oberrad,380,5.28,5A,Sachsenhausen,8.0,60599,highway,way
Zum Apothekerhof 60594 Frankfurt,50.1045891,8.6977333,3235,Zum Apothekerhof,,,,,,5,Sachsenhausen-N.,331,5.31,5A,Sachsenhausen,8.0,60594,,
Geigerstraße 60433 Frankfurt,50.1479135,8.6699104,908,Geigerstraße,,,,,,9,Dornbusch,462,9.69,9,Dornbusch,12.0,60433,,
Ringelnatzgässchen 60431 Frankfurt,50.149558,8.6636675,3555,Ringelnatzgässchen,,,,,,9,Dornbusch,442,9.68,9,Dornbusch,12.0,60431,,
Am Kiesberg 60529 Frankfurt,50.0835149,8.6017667,2978,Am Kiesberg,,,,,,6,Schwanheim,532,6.37,6A,Sachsenhausen,10.0,60529,,
Merianstraße 60316 Frankfurt,50.1216441,8.6929537,1716,Merianstraße,,,,,,3,Nordend-Ost,130,3.2,3,Ost,3.0,60316,highway,way
Sedanstraße 60386 Frankfurt,50.1191958,8.7713273,2212,Sedanstraße,,,,,,11,Fechenheim,520,11.78,11,Ost,18.0,60386,,
Mariannenstraße 60599 Frankfurt,50.1011919,8.698404016110626,1663,Mariannenstraße,,,,,,5,Sachsenhausen-S.,332,5.29,5A,Sachsenhausen,8.0,60599,highway,way
Wiesbadener Straße 65933 Frankfurt,50.1140229,8.5991833,2505,Wiesbadener Straße,,,,,,6,Griesheim,542,6.4,6A,Gallus,16.0,65933,highway,way
Schwedenpfad 65934 Frankfurt,50.1020141,8.5625341,2200,Schwedenpfad,,,,,,6,Nied,561,6.42,6A,Höchst,17.0,65934,highway,way
Liebigstraße 60323 Frankfurt,50.1215586,8.6652754,1584,Liebigstraße,ungerade,3,,11,,2,Westend-Süd,110,2.1,2,Bockenheim,3.0,60323,highway,way
Biegweg 60486 Frankfurt,50.1201939,8.6217801,425,Biegweg,,,,,,2,Bockenheim,344,2.14,2,Bockenheim,11.0,60486,,
Seckbächer Gasse 60311 Frankfurt,50.1090628,8.6772128,2211,Seckbächer Gasse,,,,,,1,Altstadt,10,1.01,1,Ost,1.0,60311,,
Emil-Siering-Park 65929 Frankfurt,50.11235785,8.544739214714284,3747,Emil-Siering-Park,,,,,,6,Unterliederbach,622,6.52,6C,Höchst,17.0,65929,highway,way
Lise-Meitner-Straße 60486 Frankfurt,50.1155997,8.6406556,3196,Lise-Meitner-Straße,,,,,,2,Bockenheim,342,2.14,2,Bockenheim,13.0,60486,,
Leimenrode 60322 Frankfurt,50.1209883,8.6789448,1559,Leimenrode,,,,,,3,Nordend-West,120,3.21,3,Ost,3.0,60322,highway,way
Ginnheimer Kirchplatz 60431 Frankfurt,50.1443224,8.64896645204356,3264,Ginnheimer Kirchplatz,,,,,,9,Ginnheim,441,9.67,9,Nord,12.0,60431,highway,way
Dielmannstraße 60599 Frankfurt,50.099117,8.7003869,637,Dielmannstraße,,,,,,5,Sachsenhausen-S.,332,5.29,5A,Sachsenhausen,8.0,60599,highway,way
Kohlrauschweg 60486 Frankfurt,50.1199005,8.6212353,1472,Kohlrauschweg,,,,,,2,Bockenheim,344,2.14,2,Bockenheim,11.0,60486,,
Buchgasse 60311 Frankfurt,50.1099119,8.6796317,524,Buchgasse,,,,,,1,Altstadt,10,1.01,1,Ost,1.0,60311,,
Leibnizstraße 60316 Frankfurt,50.1236685,8.6996999,1558,Leibnizstraße,,,,,,3,Nordend-Ost,230,3.2,3,Ost,3.0,60316,,
Usinger Straße 60389 Frankfurt,50.1303956,8.7061186,2403,Usinger Straße,,,,,,4,Bornheim,271,4.23,4,Ost,6.0,60389,highway,way
Lindenau 60433 Frankfurt,50.1576872,8.6562254,1593,Lindenau,,,,,,9,Eschersheim,451,9.65,9,Dornbusch,12.0,60433,highway,way
Pfadfinderweg 60320 Frankfurt,50.1366722,8.669041,1912,Pfadfinderweg,,,,,,2,Westend-Nord,192,2.09,2,Dornbusch,12.0,60320,highway,way
Adickesallee 60320 Frankfurt,50.1321306,8.6724952,9,Adickesallee,gerade,44,,,,3,Nordend-West,202,3.16,3,Dornbusch,12.0,60320,highway,way
Alte Brücke 60594 Frankfurt,50.107379,8.6877596,43,Alte Brücke,,,,,,5,Sachsenhausen-N.,300,5.31,5A,Sachsenhausen,8.0,60594,,
Pforzheimer Straße 60329 Frankfurt,50.1045622,8.6634225,1926,Pforzheimer Straße,,,,,,1,Gutleutviertel,151,1.04,1,Gallus,4.0,60329,,
Niederbornstraße 60435 Frankfurt,50.1516844,8.6808735,1805,Niederbornstraße,,,,,,10,Eckenheim,461,10.72,10,Dornbusch,12.0,60435,highway,way
Unterschweinstiege 60549 Frankfurt,50.057925,8.5874275,2399,Unterschweinstiege,,,,,,5,Flughafen,327,5.34,5A,Sachsenhausen,19.0,60549,,
Im Bruch 65933 Frankfurt,50.1041732,8.6045639,1255,Im Bruch,,,,,,6,Griesheim,542,6.4,6A,Gallus,16.0,65933,,
Erzbergerstraße 65933 Frankfurt,50.0941311,8.6103053,752,Erzbergerstraße,,,,,,6,Griesheim,541,6.39,6A,Gallus,16.0,65933,highway,way
Kriegkstraße 60326 Frankfurt,50.1043647,8.6388661,1501,Kriegkstraße,ungerade,23,,41,,1,Gallus,153,1.05,1,Gallus,4.0,60326,highway,way
Alter Harheimer Kirchplatz 60437 Frankfurt,50.18220719999999,8.692776127539005,3778,Alter Harheimer Kirchplatz,,,,,,14,Harheim,660,14.81,14,Nord,14.0,60437,,
Heilbronner Straße 60327 Frankfurt,50.1009324,8.6545754,1114,Heilbronner Straße,,,,,,1,Gutleutviertel,151,1.04,1,Gallus,4.0,60327,,
Rauschenbachstraße 60437 Frankfurt,50.1843287,8.6625902,1970,Rauschenbachstraße,,,,,,10,Bonames,491,10.7,10,Nord,14.0,60437,highway,way
Severusstraße 60439 Frankfurt,50.1562268,8.6402207,2226,Severusstraße,ungerade,1,,45,,8,Heddernheim,431,8.61,8,Nord,14.0,60439,highway,way
Zum Eiskeller 60529 Frankfurt,50.0782764,8.6024194,2969,Zum Eiskeller,,,,,,6,Schwanheim,532,6.37,6A,Sachsenhausen,10.0,60529,,
Wielandstraße 60318 Frankfurt,50.1249967,8.6916187,2502,Wielandstraße,,,,,,3,Nordend-West,211,3.19,3,Ost,3.0,60318,,
Alte Riedbergstraße 60437 Frankfurt,50.1853757,8.6461174,3484,Alte Riedbergstraße,,,,,,12,Kalbach-Riedberg,650,12.79,12,Nord,14.0,60437,,
Brüder-Grimm-Straße 60385 Frankfurt,50.1203673,8.7113897,515,Brüder-Grimm-Straße,ungerade,31,,61,,4,Ostend,252,4.25,4,Ost,5.0,60385,highway,way
Elisabeth-Winterhalter-Straße 60439 Frankfurt,50.1674137,8.6400597,3339,Elisabeth-Winterhalter-Straße,,,,,,8,Niederursel,483,8.63,8,Nord,14.0,60439,,
Kaulbachstraße 60594 Frankfurt,50.099505,8.6826865,1392,Kaulbachstraße,ungerade,1,,,,5,Sachsenhausen-N.,324,5.32,5A,Sachsenhausen,8.0,60594,highway,way
Luzernenweg 60433 Frankfurt,50.1675509,8.6757817,1638,Luzernenweg,,,,,,10,Frankfurter Berg,492,10.71,10,Nord,14.0,60433,,
Gerningstraße 60439 Frankfurt,50.159021,8.6464037,931,Gerningstraße,,,,,,8,Heddernheim,431,8.61,8,Nord,14.0,60439,,
Ohmstraße 60486 Frankfurt,50.1175564,8.6345551,1862,Ohmstraße,,,,,,2,Bockenheim,342,2.14,2,Bockenheim,13.0,60486,,
Schreinerstraße 65931 Frankfurt,50.0773532,8.5161943,2170,Schreinerstraße,,,,,,6,Sindlingen,601,6.47,6B,Höchst,17.0,65931,,
Wachtelweg 65929 Frankfurt,50.1056817,8.5308497,2420,Wachtelweg,,,,,,6,Unterliederbach,621,6.51,6C,Höchst,17.0,65929,,
Am Kirchberg 60431 Frankfurt,50.1551301,8.6556329,134,Am Kirchberg,,,,,,9,Eschersheim,452,9.66,9,Dornbusch,12.0,60431,,
Stephensonstraße 60326 Frankfurt,50.1066514,8.6402972,3192,Stephensonstraße,,,,,,1,Gallus,162,1.07,1,Gallus,4.0,60326,highway,way
Brückhofstraße 60311 Frankfurt,50.1103175,8.6883509,514,Brückhofstraße,,,,,,1,Innenstadt,80,1.01,1,Ost,1.0,60311,leisure,way
Heisterstraße 60594 Frankfurt,50.1026505,8.6913583,1133,Heisterstraße,,,,,,5,Sachsenhausen-N.,331,5.31,5A,Sachsenhausen,8.0,60594,amenity,node
Eberhard-Beckmann-Anlage 60320 Frankfurt,50.1361634,8.673336812005942,3637,Eberhard-Beckmann-Anlage,,,,,,3,Nordend-West,202,3.16,3,Dornbusch,12.0,60320,,
Honsellstraße 60314 Frankfurt,50.111386,8.7087198,1223,Honsellstraße,,,,,,4,Ostend,261,4.27,4,Ost,5.0,60314,highway,way
Isenburger Schneise 60528 Frankfurt,50.0811467,8.6568607,1311,Isenburger Schneise,ungerade,,,,,5,Sachsenhausen-S.,325,5.34,5A,Sachsenhausen,10.0,60528,highway,way
Martinsweg 60529 Frankfurt,50.0903618,8.5680846,1678,Martinsweg,,,,,,6,Schwanheim,531,6.38,6A,Sachsenhausen,10.0,60529,highway,way
Schubertstraße 60325 Frankfurt,50.1177521,8.6590454,2173,Schubertstraße,,,,,,2,Westend-Süd,170,2.11,2,Bockenheim,13.0,60325,,
Eugen-Hartmann-Straße 60488 Frankfurt,50.1476125,8.6100273,3630,Eugen-Hartmann-Straße,,,,,,7,Praunheim,422,7.59,7,Bockenheim,14.0,60488,highway,way
Zwingergasse 60313 Frankfurt,50.1160815,8.6764175,2578,Zwingergasse,,,,,,1,Innenstadt,50,1.02,1,Ost,1.0,60313,highway,way
Arthur-Stern-Platz 60489 Frankfurt,50.12411105,8.606792045435686,3683,Arthur-Stern-Platz,,,,,,7,Rödelheim,402,7.56,7,Bockenheim,11.0,60489,highway,way
Stettiner Straße 60388 Frankfurt,50.1478599,8.7593937,2920,Stettiner Straße,,,,,,16,Bergen-Enkheim,680,16.83,16,Ost,18.0,60388,highway,way
Bruchstraße 60594 Frankfurt,50.1028419,8.6871746,512,Bruchstraße,,,,,,5,Sachsenhausen-N.,324,5.32,5A,Sachsenhausen,8.0,60594,,
Bernburger Weg 65931 Frankfurt,50.0947843,8.501364,407,Bernburger Weg,,,,,,6,Zeilsheim,611,6.49,6B,Höchst,17.0,65931,,
Im Galluspark 60326 Frankfurt,50.0989031,8.6358849,3214,Im Galluspark,,,,,,1,Gallus,153,1.05,1,Gallus,4.0,60326,,
Florianweg 60388 Frankfurt,50.1488871,8.7536848,2871,Florianweg,,,,,,16,Bergen-Enkheim,680,16.83,16,Ost,18.0,60388,highway,way
Mahräckerstraße 60431 Frankfurt,50.1402895,8.6458377,1640,Mahräckerstraße,,,,,,9,Ginnheim,441,9.67,9,Nord,12.0,60431,,
Felix-Kracht-Straße 60486 Frankfurt,50.1143471,8.6262355,3734,Felix-Kracht-Straße,,,,,,2,Bockenheim,163,2.15,2,Bockenheim,13.0,60486,,
Paquetstraße 60431 Frankfurt,50.1431677,8.65848,1891,Paquetstraße,,,,,,9,Ginnheim,441,9.67,9,Nord,12.0,60431,,
Seckbacher Klemmenweg 60389 Frankfurt,50.1465959,8.7368944,3159,Seckbacher Klemmenweg,,,,,,11,Seckbach,390,11.75,11,Ost,6.0,60389,highway,way
Fellnerstraße 60322 Frankfurt,50.1182334,8.6763162,790,Fellnerstraße,,,,,,2,Westend-Süd,110,2.1,2,Bockenheim,3.0,60322,,
Ackermannstraße 60326 Frankfurt,50.1010322,8.6252843,3,Ackermannstraße,,,,,,1,Gallus,154,1.05,1,Gallus,16.0,60326,,
Goldregenstraße 65929 Frankfurt,50.1058086,8.5268668,3246,Goldregenstraße,,,,,,6,Unterliederbach,623,6.51,6C,Höchst,17.0,65929,,
Stroofstraße 65933 Frankfurt,50.0911478,8.5992253,2315,Stroofstraße,,,,,,6,Griesheim,551,6.39,6A,Gallus,16.0,65933,,
Im Rosenträger 60388 Frankfurt,50.1546791,8.7447421,2886,Im Rosenträger,,,,,,16,Bergen-Enkheim,680,16.83,16,Ost,18.0,60388,leisure,way
Hans-Burggraf-Anlage 60431 Frankfurt,50.1449672,8.66484096670451,3451,Hans-Burggraf-Anlage,,,,,,9,Dornbusch,442,9.68,9,Dornbusch,12.0,60431,,
Am Poloplatz 60528 Frankfurt,50.07466855,8.640262251629629,2628,Am Poloplatz,,,,,,5,Niederrad,373,5.36,5B,Sachsenhausen,10.0,60528,highway,way
Zur Bornfloßquelle 60438 Frankfurt,50.1743333,8.6356664,3650,Zur Bornfloßquelle,,,,,,12,Kalbach-Riedberg,651,12.79,12,Nord,14.0,60438,,
Theodor-Neubürger-Straße 60439 Frankfurt,50.1682589,8.6404079,3338,Theodor-Neubürger-Straße,,,,,,8,Niederursel,483,8.63,8,Nord,14.0,60439,highway,way
Hugo-Junkers-Straße 60386 Frankfurt,50.1270277,8.7531388,1233,Hugo-Junkers-Straße,,,,,,11,Fechenheim,510,11.77,11,Ost,18.0,60386,highway,way
Brüningpark 65929 Frankfurt,50.097305,8.545673216702818,3716,Brüningpark,,,,,,6,Höchst,580,6.45,6C,Höchst,17.0,65929,highway,way
Am Industriehof 60487 Frankfurt,50.1296431,8.623097,131,Am Industriehof,ungerade,,,,,7,Bockenheim,343,7.57,2,Bockenheim,11.0,60487,,
Kaltmühle 60439 Frankfurt,50.1675063,8.645758,1354,Kaltmühle,ungerade,,,,,8,Niederursel,483,8.63,8,Nord,14.0,60439,highway,way
Lorscher Straße 60489 Frankfurt,50.1263416,8.6097553,1613,Lorscher Straße,ungerade,1,,41,,7,Rödelheim,402,7.56,7,Bockenheim,11.0,60489,highway,way
Hinter der Burg 60388 Frankfurt,50.1567031,8.7530074,2882,Hinter der Burg,,,,,,16,Bergen-Enkheim,680,16.83,16,Ost,18.0,60388,,
Klimsch-Anlage 60431 Frankfurt,50.1444886,8.6661601,3337,Klimsch-Anlage,,,,,,9,Dornbusch,442,9.68,9,Dornbusch,12.0,60431,highway,way
Kannengießergasse 60311 Frankfurt,50.1112816,8.6867314,1357,Kannengießergasse,,,,,,1,Altstadt,10,1.01,1,Ost,1.0,60311,,
Marquardstraße 60489 Frankfurt,50.1238889,8.6079444,1672,Marquardstraße,,,,,,7,Rödelheim,402,7.56,7,Bockenheim,11.0,60489,,
Trakehner Straße 60487 Frankfurt,50.1275283,8.6306016,2370,Trakehner Straße,,,,,,7,Bockenheim,343,7.57,2,Bockenheim,11.0,60487,,
Egenolffstraße 60316 Frankfurt,50.1263261,8.693928,694,Egenolffstraße,,,,,,3,Nordend-Ost,221,3.19,3,Ost,3.0,60316,,
Heinrich-Limpert-Weg 60599 Frankfurt,50.0918636,8.6927755,1783,Heinrich-Limpert-Weg,,,,,,5,Sachsenhausen-S.,332,5.29,5A,Sachsenhausen,8.0,60599,,
Westhafenplatz 60327 Frankfurt,50.1011059,8.664169,3424,Westhafenplatz,,,,,,1,Gutleutviertel,151,1.04,1,Gallus,4.0,60327,amenity,node
Amelia-Mary-Earhart-Straße 60549 Frankfurt,50.055046,8.5935818,3552,Amelia-Mary-Earhart-Straße,,,,,,5,Flughafen,327,5.34,5A,Sachsenhausen,19.0,60549,highway,way
Schüttgrabenstraße 60439 Frankfurt,50.1669849,8.6193668,2175,Schüttgrabenstraße,,,,,,8,Niederursel,481,8.63,8,Nord,14.0,60439,,
Große Nelkenstraße 60488 Frankfurt,50.1325914,8.6273862,995,Große Nelkenstraße,,,,,,7,Hausen,410,7.58,7,Bockenheim,11.0,60488,,
Freiherr-vom-Stein-Straße 60323 Frankfurt,50.1187955,8.6640005,855,Freiherr-vom-Stein-Straße,,,,,,2,Westend-Süd,180,2.1,2,Bockenheim,3.0,60323,highway,way
Im Geiersrain 60435 Frankfurt,50.1731801,8.6951556,2798,Im Geiersrain,,,,,,10,Berkersheim,500,10.74,10,Nord,14.0,60435,highway,way
Rohmerstraße 60486 Frankfurt,50.121848,8.6451147,2035,Rohmerstraße,ungerade,5,,39,,2,Bockenheim,350,2.13,2,Bockenheim,13.0,60486,,
Alte Mainzer Gasse 60311 Frankfurt,50.109323,8.6803583,47,Alte Mainzer Gasse,,,,,,1,Altstadt,10,1.01,1,Ost,1.0,60311,highway,way
Niddastraße 60327 Frankfurt,50.1069642,8.6576105,1803,Niddastraße,gerade,110,,,,1,Gallus,152,1.06,1,Gallus,4.0,60327,,
Emmy-Klieneberger-Nobel-Straße 60438 Frankfurt,50.1710474,8.6288229,3751,Emmy-Klieneberger-Nobel-Straße,,,,,,8,Niederursel,484,8.63,8,Nord,14.0,60438,highway,way
Schaubstraße 60596 Frankfurt,50.099996,8.6701608,2108,Schaubstraße,,,,,,5,Sachsenhausen-N.,322,5.33,5A,Sachsenhausen,8.0,60596,,
Neulandstraße 65931 Frankfurt,50.0879072,8.5075761,1788,Neulandstraße,,,,,,6,Sindlingen,602,6.48,6B,Höchst,17.0,65931,highway,way
Bernadottestraße 60439 Frankfurt,50.1567019,8.6318902,406,Bernadottestraße,ungerade,,,,,8,Heddernheim,432,8.62,8,Nord,14.0,60439,amenity,node
Oppenheimer Landstraße 60594 Frankfurt,50.1041828,8.6819631,1867,Oppenheimer Landstraße,ungerade,1,,19,,5,Sachsenhausen-N.,324,5.32,5A,Sachsenhausen,8.0,60594,,
Schumannstraße 60325 Frankfurt,50.1197797,8.6553614,2182,Schumannstraße,,,,,,2,Westend-Süd,170,2.11,2,Bockenheim,13.0,60325,amenity,node
Wittelsbacherallee 60316 Frankfurt,50.1170889,8.7005029,2535,Wittelsbacherallee,ungerade,1,,17,,4,Ostend,140,4.26,4,Ost,5.0,60316,,
Parrotweg 60486 Frankfurt,50.1136927,8.628697,1896,Parrotweg,,,,,,2,Bockenheim,163,2.15,2,Bockenheim,13.0,60486,highway,way
Am Lachgraben 65931 Frankfurt,50.08528,8.5157846,139,Am Lachgraben,,,,,,6,Sindlingen,601,6.47,6B,Höchst,17.0,65931,highway,way
Seehofsweg 60599 Frankfurt,50.0968277,8.7051505,2217,Seehofsweg,,,,,,5,Sachsenhausen-S.,332,5.29,5A,Sachsenhausen,8.0,60599,highway,way
Hartmann-Ibach-Straße 60389 Frankfurt,50.1273986,8.7033283,1086,Hartmann-Ibach-Straße,,,,,,3,Nordend-Ost,222,3.18,3,Ost,6.0,60389,,
Kaiserstraße 60311 Frankfurt,50.1107293,8.6755811,1349,Kaiserstraße,ungerade,1,,29,,1,Innenstadt,40,1.03,1,Ost,1.0,60311,,
Montabaurer Straße 65936 Frankfurt,50.1232311,8.5643945,1739,Montabaurer Straße,,,,,,6,Sossenheim,631,6.53,6C,Höchst,17.0,65936,highway,way
Flurscheideweg 65936 Frankfurt,50.124468,8.5721922,822,Flurscheideweg,,,,,,6,Sossenheim,632,6.54,6C,Höchst,17.0,65936,,
Danziger Platz 60314 Frankfurt,50.1136066,8.7080031,619,Danziger Platz,ungerade,,,,,4,Ostend,261,4.27,4,Ost,5.0,60314,highway,way
Am Salzhaus 60311 Frankfurt,50.1119432,8.6771759,174,Am Salzhaus,,,,,,1,Innenstadt,40,1.03,1,Ost,1.0,60311,,
Leunabrücke 60529 Frankfurt,50.09449785,8.545872130562362,3231,Leunabrücke,,,,,,6,Schwanheim,531,6.38,6A,Sachsenhausen,10.0,60529,,
Junghofstraße 60311 Frankfurt,50.113395,8.6717996,1340,Junghofstraße,ungerade,13,,27,,1,Innenstadt,40,1.03,1,Ost,1.0,60311,,
Kellerskopfweg 65931 Frankfurt,50.0984041,8.512444,1397,Kellerskopfweg,,,,,,6,Zeilsheim,604,6.49,6B,Höchst,17.0,65931,,
Gablonzer Straße 60598 Frankfurt,50.0845675,8.6732379,893,Gablonzer Straße,,,,,,5,Sachsenhausen-S.,326,5.34,5A,Sachsenhausen,8.0,60598,,
Neuer Wall 60594 Frankfurt,50.1047846,8.6907206,1782,Neuer Wall,,,,,,5,Sachsenhausen-N.,300,5.31,5A,Sachsenhausen,8.0,60594,,
Im Sauern 60437 Frankfurt,50.2050724,8.7114669,2800,Im Sauern,,,,,,13,Nieder-Erlenbach,640,13.8,13,Nord,14.0,60437,,
Brombeerpfad 65933 Frankfurt,50.1073985,8.6029478,507,Brombeerpfad,,,,,,6,Griesheim,542,6.4,6A,Gallus,16.0,65933,highway,way
Höhenstraße 60385 Frankfurt,50.1227967,8.7014363,1191,Höhenstraße,ungerade,,,,,3,Nordend-Ost,230,3.2,3,Ost,3.0,60385,,
Heinrich-Hardt-Straße 65933 Frankfurt,50.1031913,8.6002274,1123,Heinrich-Hardt-Straße,ungerade,29,,47,,6,Griesheim,542,6.4,6A,Gallus,16.0,65933,highway,way
Rose-Schlösinger-Anlage 60385 Frankfurt,50.12731675,8.719407593399513,3220,Rose-Schlösinger-Anlage,,,,,,4,Bornheim,281,4.24,4,Ost,6.0,60385,landuse,way
Jakob-Heller-Straße 60320 Frankfurt,50.1390603,8.6814277,1316,Jakob-Heller-Straße,,,,,,9,Dornbusch,463,9.69,9,Dornbusch,12.0,60320,highway,way
Goetzstraße 60386 Frankfurt,50.1257965,8.7662129,958,Goetzstraße,,,,,,11,Fechenheim,510,11.77,11,Ost,18.0,60386,highway,way
Winkelgasse 60437 Frankfurt,50.1834533,8.6936931,2734,Winkelgasse,,,,,,14,Harheim,660,14.81,14,Nord,14.0,60437,highway,way
Am Sausee 60386 Frankfurt,50.1354928,8.7273378,3136,Am Sausee,,,,,,11,Seckbach,390,11.75,11,Ost,18.0,60386,,
Rennsteig 65929 Frankfurt,50.1100083,8.5277613,1997,Rennsteig,,,,,,6,Unterliederbach,621,6.51,6C,Höchst,17.0,65929,,
Flörsheimer Straße 60326 Frankfurt,50.104048,8.6374111,814,Flörsheimer Straße,,,,,,1,Gallus,162,1.07,1,Gallus,4.0,60326,,
Marderweg 65933 Frankfurt,50.1012239,8.5941709,1661,Marderweg,,,,,,6,Griesheim,552,6.41,6A,Gallus,16.0,65933,,
Adlerflychtplatz 60318 Frankfurt,50.12427725,8.681756760648549,10,Adlerflychtplatz,,,,,,3,Nordend-West,201,3.21,3,Dornbusch,3.0,60318,,
Keltenstraße 60437 Frankfurt,50.1853772,8.6983433,2722,Keltenstraße,,,,,,14,Harheim,660,14.81,14,Nord,14.0,60437,,
Berkersheimer Obergasse 60435 Frankfurt,50.1722719,8.6972378,402,Berkersheimer Obergasse,,,,,,10,Berkersheim,500,10.74,10,Nord,14.0,60435,highway,way
Robert-Koch-Allee 60438 Frankfurt,50.1761075,8.6266885,3574,Robert-Koch-Allee,,,,,,12,Kalbach-Riedberg,651,12.79,12,Nord,14.0,60438,,
Speckgasse 60599 Frankfurt,50.0999875,8.7191224,2261,Speckgasse,,,,,,5,Oberrad,380,5.28,5A,Sachsenhausen,8.0,60599,highway,way
Schwedlerbrücke 60314 Frankfurt,50.1166732,8.7170614,2201,Schwedlerbrücke,,,,,,4,Ostend,261,4.27,4,Ost,5.0,60314,,
Rossittener Straße 60487 Frankfurt,50.1243983,8.6248528,2046,Rossittener Straße,,,,,,7,Bockenheim,343,7.57,2,Bockenheim,11.0,60487,,
Zeuläckerstraße 60389 Frankfurt,50.1396826,8.7236265,2561,Zeuläckerstraße,,,,,,11,Seckbach,390,11.75,11,Ost,6.0,60389,highway,way
Coburger Weg 65931 Frankfurt,50.0954612,8.5008342,602,Coburger Weg,,,,,,6,Zeilsheim,611,6.49,6B,Höchst,17.0,65931,highway,way
Konrad-Meyer-Weg 65936 Frankfurt,50.1217999,8.5705678,1480,Konrad-Meyer-Weg,,,,,,6,Sossenheim,632,6.54,6C,Höchst,17.0,65936,,
Ella-Bergmann-Michel-Straße 60438 Frankfurt,50.1790192,8.6211157,3653,Ella-Bergmann-Michel-Straße,,,,,,12,Kalbach-Riedberg,651,12.79,12,Nord,14.0,60438,,
Kruggasse 60311 Frankfurt,50.1114888,8.6840112,1509,Kruggasse,,,,,,1,Altstadt,10,1.01,1,Ost,1.0,60311,highway,way
An der Sandelmühle 60439 Frankfurt,50.1643873,8.6481533,244,An der Sandelmühle,,,,,,8,Heddernheim,431,8.61,8,Nord,14.0,60439,,
Friedberger Landstraße 60389 Frankfurt,50.144325,8.7050988,861,Friedberger Landstraße,ungerade,169,,195,,3,Nordend-West,212,3.17,3,Ost,6.0,60389,highway,way
Reinganumstraße 60385 Frankfurt,50.1210706,8.7124482,1989,Reinganumstraße,,,,,,4,Ostend,252,4.25,4,Ost,5.0,60385,highway,way
Hansteinstraße 60318 Frankfurt,50.1270057,8.6853576,1080,Hansteinstraße,,,,,,3,Nordend-West,203,3.16,3,Dornbusch,3.0,60318,,
Auf der Sandkaute 60388 Frankfurt,50.1449497,8.7640184,3698,Auf der Sandkaute,,,,,,16,Bergen-Enkheim,680,16.83,16,Ost,18.0,60388,,
Frankenallee 60327 Frankfurt,50.1072778,8.6507872,838,Frankenallee,ungerade,23,,99,,1,Gallus,161,1.06,1,Gallus,4.0,60327,highway,way
Schöne Aussicht 60311 Frankfurt,50.1096245,8.6877292,2162,Schöne Aussicht,,,,,,1,Innenstadt,80,1.01,1,Ost,1.0,60311,,
Titusstraße 60439 Frankfurt,50.1586619,8.6392454,2364,Titusstraße,ungerade,3,,35,,8,Heddernheim,431,8.61,8,Nord,14.0,60439,highway,way
Ganghoferstraße 60320 Frankfurt,50.1454594,8.6661231,899,Ganghoferstraße,,,,,,9,Dornbusch,442,9.68,9,Dornbusch,12.0,60320,highway,way
Jean-Monnet-Straße 60435 Frankfurt,50.1610022,8.6838659,3121,Jean-Monnet-Straße,,,,,,10,Eckenheim,461,10.72,10,Dornbusch,12.0,60435,leisure,way
Mühlbruchstraße 60594 Frankfurt,50.1018625,8.6911764,1747,Mühlbruchstraße,,,,,,5,Sachsenhausen-N.,331,5.31,5A,Sachsenhausen,8.0,60594,,
Alt-Kalbach 60437 Frankfurt,50.1891678,8.6348389,2669,Alt-Kalbach,,,,,,12,Kalbach-Riedberg,650,12.79,12,Nord,14.0,60437,,
Heusingerstraße 65934 Frankfurt,50.1064194,8.5784994,1166,Heusingerstraße,,,,,,6,Nied,562,6.43,6A,Höchst,16.0,65934,,
Teplitz-Schönauer-Straße 60598 Frankfurt,50.088749,8.6752126,2335,Teplitz-Schönauer-Straße,,,,,,5,Sachsenhausen-S.,326,5.34,5A,Sachsenhausen,8.0,60598,,
Lachnerstraße 60386 Frankfurt,50.1207991,8.7680221,1524,Lachnerstraße,,,,,,11,Fechenheim,520,11.78,11,Ost,18.0,60386,highway,way
Rossertstraße 60323 Frankfurt,50.1226381,8.6608565,2045,Rossertstraße,,,,,,2,Westend-Süd,180,2.1,2,Bockenheim,3.0,60323,,
Karl-Gerold-Platz 60594 Frankfurt,50.1013962,8.686509282740031,3579,Karl-Gerold-Platz,,,,,,5,Sachsenhausen-N.,324,5.32,5A,Sachsenhausen,8.0,60594,highway,way
Im Herzen von Europa 60528 Frankfurt,50.0660881,8.6484643,3763,Im Herzen von Europa,,,,,,5,Sachsenhausen-S.,325,5.34,5A,Sachsenhausen,10.0,60528,highway,way
Birsteiner Straße 60386 Frankfurt,50.135801,8.7640473,435,Birsteiner Straße,,,,,,11,Fechenheim,510,11.77,11,Ost,18.0,60386,,
Am Sausee 60388 Frankfurt,50.1354928,8.7273378,3136,Am Sausee,,,,,,11,Seckbach,390,11.75,11,Ost,6.0,60388,,
Hungener Straße 60389 Frankfurt,50.1336126,8.6973781,1241,Hungener Straße,,,,,,3,Nordend-Ost,222,3.18,3,Ost,6.0,60389,,
Am Weigelsgarten 60433 Frankfurt,50.1646699,8.655739,206,Am Weigelsgarten,,,,,,9,Eschersheim,451,9.65,9,Dornbusch,12.0,60433,,
Kirchnerstraße 60311 Frankfurt,50.1108389,8.6752389,1415,Kirchnerstraße,,,,,,1,Innenstadt,40,1.03,1,Ost,1.0,60311,highway,way
In den Teichen 60389 Frankfurt,50.1421551,8.7286316,3284,In den Teichen,,,,,,11,Seckbach,390,11.75,11,Ost,6.0,60389,highway,way
An der Pfaffenmauer 60388 Frankfurt,50.1529292,8.7593223,2854,An der Pfaffenmauer,,,,,,16,Bergen-Enkheim,680,16.83,16,Ost,18.0,60388,,
Ferdinand-Kramer-Straße 60488 Frankfurt,50.1379278,8.6034856,3039,Ferdinand-Kramer-Straße,,,,,,7,Praunheim,423,7.59,7,Bockenheim,11.0,60488,highway,way
Unterlindau 60323 Frankfurt,50.1211706,8.6674117,2395,Unterlindau,ungerade,1,,33,,2,Westend-Süd,110,2.1,2,Bockenheim,3.0,60323,,
Frankensteiner Platz 60594 Frankfurt,50.1066384,8.692212,839,Frankensteiner Platz,ungerade,1,,,,5,Sachsenhausen-N.,300,5.31,5A,Sachsenhausen,8.0,60594,highway,way
Gabriel-Riesser-Weg 60487 Frankfurt,50.1210684,8.65248,3689,Gabriel-Riesser-Weg,,,,,,2,Bockenheim,361,2.12,2,Bockenheim,13.0,60487,highway,way
Elisabeth-Schwarzhaupt-Anlage 60433 Frankfurt,50.15164215,8.674347957545894,3119,Elisabeth-Schwarzhaupt-Anlage,,,,,,9,Dornbusch,462,9.69,9,Dornbusch,12.0,60433,highway,way
Kransberger Weg 60439 Frankfurt,50.15631,8.6279422,1492,Kransberger Weg,,,,,,8,Praunheim,426,8.62,7,Nord,14.0,60439,highway,way
Kurmarkplatz 60437 Frankfurt,50.2063415,8.70275555013966,3672,Kurmarkplatz,,,,,,13,Nieder-Erlenbach,640,13.8,13,Nord,14.0,60437,,
Fritzlarer Straße 60487 Frankfurt,50.1253095,8.6369656,879,Fritzlarer Straße,,,,,,2,Bockenheim,362,2.12,2,Bockenheim,13.0,60487,,
Alt-Höchst 65929 Frankfurt,50.099587,8.5474746,64,Alt-Höchst,,,,,,6,Höchst,591,6.46,6C,Höchst,17.0,65929,highway,way
Paul-Kornfeld-Weg 60439 Frankfurt,50.1594651,8.6175523,2951,Paul-Kornfeld-Weg,,,,,,8,Niederursel,482,8.64,8,Nord,14.0,60439,,
Galvanistraße 60486 Frankfurt,50.1168508,8.636197,3259,Galvanistraße,,,,,,2,Bockenheim,342,2.14,2,Bockenheim,13.0,60486,highway,way
Poststraße 60329 Frankfurt,50.1073105,8.6602918,1940,Poststraße,,,,,,1,Gallus,152,1.06,1,Gallus,4.0,60329,,
Niedwiesenstraße 60431 Frankfurt,50.1565901,8.652402,1814,Niedwiesenstraße,ungerade,1,,127,,9,Eschersheim,452,9.66,9,Dornbusch,12.0,60431,,
Elly-Beinhorn-Straße 60549 Frankfurt,50.0307712,8.5895689,3561,Elly-Beinhorn-Straße,,,,,,5,Flughafen,329,5.34,5A,Sachsenhausen,19.0,60549,,
Nußbaumstraße 60385 Frankfurt,50.1349451,8.7126002,1828,Nußbaumstraße,,,,,,4,Bornheim,272,4.22,4,Ost,6.0,60385,,
Am Kunzengarten 65936 Frankfurt,50.1203281,8.5683871,138,Am Kunzengarten,,,,,,6,Sossenheim,632,6.54,6C,Höchst,17.0,65936,,
Heinrich-Baldes-Straße 65936 Frankfurt,50.1145995,8.554697,3184,Heinrich-Baldes-Straße,,,,,,6,Sossenheim,631,6.53,6C,Höchst,17.0,65936,railway,node
Im Trieb 60389 Frankfurt,50.1413175,8.7266118,2373,Im Trieb,,,,,,11,Seckbach,390,11.75,11,Ost,6.0,60389,,
Windeckstraße 60314 Frankfurt,50.1105933,8.7011197,2528,Windeckstraße,ungerade,,,,,4,Ostend,140,4.26,4,Ost,5.0,60314,,
Ohlengarten 60488 Frankfurt,50.1512733,8.6223873,1861,Ohlengarten,,,,,,7,Praunheim,425,7.6,7,Bockenheim,14.0,60488,,
Lindenhag 65933 Frankfurt,50.1069488,8.6019399,1594,Lindenhag,,,,,,6,Griesheim,542,6.4,6A,Gallus,16.0,65933,highway,way
Wetteraustraße 60389 Frankfurt,50.1337657,8.7014646,2496,Wetteraustraße,,,,,,3,Nordend-Ost,222,3.18,3,Ost,6.0,60389,,
Hellerhofstraße 60327 Frankfurt,50.1042858,8.6471815,1135,Hellerhofstraße,,,,,,1,Gallus,161,1.06,1,Gallus,4.0,60327,highway,way
Fachfeldstraße 60386 Frankfurt,50.122034,8.7682215,770,Fachfeldstraße,,,,,,11,Fechenheim,520,11.78,11,Ost,18.0,60386,,
Am Oberschlag 60437 Frankfurt,50.1882481,8.6463694,2675,Am Oberschlag,,,,,,12,Kalbach-Riedberg,650,12.79,12,Nord,14.0,60437,,
Donnersbergstraße 60528 Frankfurt,50.0877437,8.6353421,656,Donnersbergstraße,,,,,,5,Niederrad,371,5.35,5B,Sachsenhausen,10.0,60528,highway,way
Beunestraße 65934 Frankfurt,50.1000073,8.5665069,421,Beunestraße,,,,,,6,Nied,561,6.42,6A,Höchst,16.0,65934,,
Am Ulmenstückweg 60389 Frankfurt,50.1397679,8.7254276,3638,Am Ulmenstückweg,,,,,,11,Seckbach,390,11.75,11,Ost,6.0,60389,,
Fuchstanzstraße 60489 Frankfurt,50.1285639,8.6098005,887,Fuchstanzstraße,,,,,,7,Rödelheim,401,7.55,7,Bockenheim,11.0,60489,highway,way
Hohenstaufenstraße 60327 Frankfurt,50.1105399,8.6570186,1205,Hohenstaufenstraße,,,,,,1,Gallus,161,1.06,1,Gallus,13.0,60327,,
Riedrain 65936 Frankfurt,50.1226916,8.5703481,2015,Riedrain,,,,,,6,Sossenheim,632,6.54,6C,Höchst,17.0,65936,,
Rebstockpark 60486 Frankfurt,50.11288165,8.623596045126355,1977,Rebstockpark,,,,,,2,Bockenheim,163,2.15,2,Bockenheim,13.0,60486,highway,way
Am Eisernen Schlag 60431 Frankfurt,50.139648,8.6501691,102,Am Eisernen Schlag,,,,,,9,Ginnheim,441,9.67,9,Nord,12.0,60431,,
Magda-Spiegel-Weg 60438 Frankfurt,50.1825722,8.6253752,3536,Magda-Spiegel-Weg,,,,,,12,Kalbach-Riedberg,651,12.79,12,Nord,14.0,60438,,
Holbeinsteg 60329 Frankfurt,50.104799,8.6708819,3168,Holbeinsteg,,,,,,1,Bahnhofsviertel,90,1.03,1,Gallus,4.0,60329,highway,way
Paul-Tillich-Straße 60528 Frankfurt,50.0779911,8.6436457,3049,Paul-Tillich-Straße,,,,,,5,Niederrad,372,5.36,5B,Sachsenhausen,10.0,60528,highway,way
Hans-Kobald-Weg 65934 Frankfurt,50.106555,8.5836154,3164,Hans-Kobald-Weg,,,,,,6,Nied,562,6.43,6A,Höchst,16.0,65934,,
Stockheimer Straße 60385 Frankfurt,50.1267192,8.7153097,2307,Stockheimer Straße,,,,,,4,Bornheim,281,4.24,4,Ost,6.0,60385,,
Baseler Platz 60329 Frankfurt,50.1034231,8.66408321940466,378,Baseler Platz,,,,,,1,Gutleutviertel,151,1.04,1,Gallus,4.0,60329,,
Westerbachstraße 60489 Frankfurt,50.122774,8.5971061,2492,Westerbachstraße,ungerade,1,,79,,7,Rödelheim,402,7.56,7,Bockenheim,11.0,60489,highway,way
Grillparzerstraße 60320 Frankfurt,50.1421428,8.6667891,987,Grillparzerstraße,,,,,,9,Dornbusch,442,9.68,9,Dornbusch,12.0,60320,highway,way
Malvenweg 60433 Frankfurt,50.1671594,8.6814364,3369,Malvenweg,,,,,,10,Frankfurter Berg,492,10.71,10,Nord,14.0,60433,highway,way
Friedrich-Karl-Klausing-Straße 60438 Frankfurt,50.1803569,8.6267674,3533,Friedrich-Karl-Klausing-Straße,,,,,,12,Kalbach-Riedberg,651,12.79,12,Nord,14.0,60438,,
Unterweg 60318 Frankfurt,50.1191463,8.6840563,2401,Unterweg,,,,,,3,Nordend-West,120,3.21,3,Ost,3.0,60318,,
Bodelschwinghstraße 60386 Frankfurt,50.1236832,8.7637824,455,Bodelschwinghstraße,ungerade,,,,,11,Fechenheim,510,11.77,11,Ost,18.0,60386,,
Anneliese-Hoevel-Straße 60435 Frankfurt,50.1376939,8.6947909,3642,Anneliese-Hoevel-Straße,,,,,,3,Nordend-West,213,3.17,3,Ost,12.0,60435,highway,way
Am Ulmenrück 60433 Frankfurt,50.1675808,8.6855828,199,Am Ulmenrück,,,,,,10,Frankfurter Berg,492,10.71,10,Nord,14.0,60433,highway,way
Solmspark 60489 Frankfurt,50.121826,8.612249364755009,2246,Solmspark,,,,,,7,Rödelheim,401,7.55,7,Bockenheim,11.0,60489,highway,way
Gickelgasse 60437 Frankfurt,50.1890412,8.6374718,2687,Gickelgasse,,,,,,12,Kalbach-Riedberg,650,12.79,12,Nord,14.0,60437,landuse,way
Heinz-Raspe-Platz 60314 Frankfurt,50.11273995,8.720248485584346,3430,Heinz-Raspe-Platz,,,,,,4,Ostend,261,4.27,4,Ost,5.0,60314,highway,way
Pfarrer-Perabo-Platz 60326 Frankfurt,50.09860825,8.634156962682216,3213,Pfarrer-Perabo-Platz,,,,,,1,Gallus,153,1.05,1,Gallus,4.0,60326,,
Kurzröderstraße 60435 Frankfurt,50.1463489,8.6841882,1523,Kurzröderstraße,,,,,,10,Eckenheim,461,10.72,10,Dornbusch,12.0,60435,place,way
Breitenbachbrücke 60487 Frankfurt,50.1254398,8.633799,492,Breitenbachbrücke,,,,,,7,Bockenheim,343,7.57,2,Bockenheim,11.0,60487,,
Lettigkautweg 60599 Frankfurt,50.0965107,8.7023227,1573,Lettigkautweg,,,,,,5,Sachsenhausen-S.,332,5.29,5A,Sachsenhausen,8.0,60599,,
Mark-Aurel-Straße 60439 Frankfurt,50.1581367,8.6440203,1667,Mark-Aurel-Straße,ungerade,1,,29,,8,Heddernheim,431,8.61,8,Nord,14.0,60439,,
In der Wink 60437 Frankfurt,50.1902438,8.6376015,2694,In der Wink,,,,,,12,Kalbach-Riedberg,650,12.79,12,Nord,14.0,60437,highway,way
Stiftung-Waisenhaus-Weg 60438 Frankfurt,50.1815716,8.6274518,3510,Stiftung-Waisenhaus-Weg,,,,,,12,Kalbach-Riedberg,651,12.79,12,Nord,14.0,60438,,
Ammelburgstraße 60320 Frankfurt,50.1384751,8.6760945,150,Ammelburgstraße,,,,,,9,Dornbusch,463,9.69,9,Dornbusch,12.0,60320,,
Margarete-Susman-Weg 60438 Frankfurt,50.1800474,8.633994,3515,Margarete-Susman-Weg,,,,,,12,Kalbach-Riedberg,651,12.79,12,Nord,14.0,60438,,
Heinrich-Hoffmann-Straße 60528 Frankfurt,50.0924103,8.6513699,1125,Heinrich-Hoffmann-Straße,,,,,,5,Niederrad,371,5.35,5B,Sachsenhausen,10.0,60528,,
Marbachweg 60435 Frankfurt,50.1439799,8.6922128,1659,Marbachweg,ungerade,9,,107,,10,Preungesheim,470,10.73,10,Dornbusch,12.0,60435,highway,way
In der Krümm 65934 Frankfurt,50.1015204,8.562694,1298,In der Krümm,,,,,,6,Nied,561,6.42,6A,Höchst,17.0,65934,highway,way
Hügelstraße 60431 Frankfurt,50.146674,8.6603996,1229,Hügelstraße,ungerade,115,,179,,9,Dornbusch,442,9.68,9,Dornbusch,12.0,60431,highway,way
Kirschbaumweg 60489 Frankfurt,50.1262579,8.6031356,1418,Kirschbaumweg,,,,,,7,Rödelheim,402,7.56,7,Bockenheim,11.0,60489,amenity,node
An der Rosenkranzkirche 60389 Frankfurt,50.1401719,8.7219701,3257,An der Rosenkranzkirche,,,,,,11,Seckbach,390,11.75,11,Ost,6.0,60389,highway,way
Am Grünhof 60320 Frankfurt,50.1358908,8.6701662,119,Am Grünhof,,,,,,2,Westend-Nord,192,2.09,2,Dornbusch,12.0,60320,highway,way
Landgrafenstraße 60486 Frankfurt,50.1208823,8.6471726,1535,Landgrafenstraße,ungerade,,,,,2,Bockenheim,350,2.13,2,Bockenheim,13.0,60486,highway,way
Enge Gasse 60433 Frankfurt,50.1606372,8.6550398,732,Enge Gasse,,,,,,9,Eschersheim,451,9.65,9,Dornbusch,12.0,60433,highway,way
Ludwig-Landmann-Straße 60487 Frankfurt,50.1296546,8.6222118,1621,Ludwig-Landmann-Straße,ungerade,343,,385,,7,Bockenheim,343,7.57,2,Bockenheim,11.0,60487,,
Emil-von-Behring-Straße 60439 Frankfurt,50.1678517,8.6355704,3067,Emil-von-Behring-Straße,,,,,,8,Niederursel,483,8.63,8,Nord,14.0,60439,,
Martin-Zahn-Straße 60435 Frankfurt,50.1540936,8.6795089,3709,Martin-Zahn-Straße,,,,,,10,Eckenheim,461,10.72,10,Dornbusch,12.0,60435,,
Martin-May-Straße 60594 Frankfurt,50.10275,8.6892782,1676,Martin-May-Straße,,,,,,5,Sachsenhausen-N.,324,5.32,5A,Sachsenhausen,8.0,60594,,
Lamboystraße 60598 Frankfurt,50.0912344,8.6806216,1533,Lamboystraße,,,,,,5,Sachsenhausen-S.,323,5.3,5A,Sachsenhausen,8.0,60598,highway,way
Matthias-Claudius-Straße 60431 Frankfurt,50.150411,8.6586577,1687,Matthias-Claudius-Straße,,,,,,9,Eschersheim,452,9.66,9,Dornbusch,12.0,60431,,
Cäcilia-Lauth-Spielpark 65936 Frankfurt,50.12675155,8.568543920556063,3003,Cäcilia-Lauth-Spielpark,,,,,,6,Sossenheim,632,6.54,6C,Höchst,17.0,65936,,
Am Köstrich 60489 Frankfurt,50.1264689,8.6127183,136,Am Köstrich,,,,,,7,Rödelheim,401,7.55,7,Bockenheim,11.0,60489,highway,way
Kaiserkronenweg 60433 Frankfurt,50.1659112,8.6820826,3370,Kaiserkronenweg,,,,,,10,Frankfurter Berg,492,10.71,10,Nord,14.0,60433,,
An der Lühe 60488 Frankfurt,50.1375999,8.6243511,2608,An der Lühe,,,,,,7,Hausen,410,7.58,7,Bockenheim,11.0,60488,highway,way
Carl-von-Noorden-Platz 60596 Frankfurt,50.0974865,8.6632336,3330,Carl-von-Noorden-Platz,,,,,,5,Sachsenhausen-N.,322,5.33,5A,Sachsenhausen,8.0,60596,,
Risselsteinweg 65931 Frankfurt,50.0989924,8.5093649,2018,Risselsteinweg,,,,,,6,Zeilsheim,604,6.49,6B,Höchst,17.0,65931,,
Kostheimer Straße 60326 Frankfurt,50.1028428,8.6406283,1487,Kostheimer Straße,,,,,,1,Gallus,162,1.07,1,Gallus,4.0,60326,highway,way
Aßlarer Straße 60439 Frankfurt,50.1634982,8.6421465,3010,Aßlarer Straße,,,,,,8,Heddernheim,431,8.61,8,Nord,14.0,60439,highway,way
Mierendorffstraße 60320 Frankfurt,50.1398506,8.6740618,1725,Mierendorffstraße,,,,,,9,Dornbusch,462,9.69,9,Dornbusch,12.0,60320,highway,way
Emil-Sulzbach-Straße 60486 Frankfurt,50.113923,8.6477822,727,Emil-Sulzbach-Straße,,,,,,2,Westend-Süd,170,2.11,2,Bockenheim,13.0,60486,,
Zum Eschbachsteg 60437 Frankfurt,50.2024895,8.6742305,2782,Zum Eschbachsteg,,,,,,15,Nieder-Eschbach,670,15.82,15,Nord,14.0,60437,highway,way
Lichtensteinstraße 60322 Frankfurt,50.1271437,8.6817259,1581,Lichtensteinstraße,,,,,,3,Nordend-West,203,3.16,3,Dornbusch,3.0,60322,highway,way
Pfingstbrunnenstraße 60486 Frankfurt,50.1163274,8.6385563,1920,Pfingstbrunnenstraße,,,,,,2,Bockenheim,342,2.14,2,Bockenheim,13.0,60486,,
Oestricher Weg 60529 Frankfurt,50.0827866,8.5676042,1859,Oestricher Weg,,,,,,6,Schwanheim,531,6.38,6A,Sachsenhausen,10.0,60529,,
Sossenheimer Mühlgasse 65936 Frankfurt,50.1195175,8.5653323,2256,Sossenheimer Mühlgasse,,,,,,6,Sossenheim,631,6.53,6C,Höchst,17.0,65936,,
Philipp-Puth-Straße 60388 Frankfurt,50.1418019,8.7577685,2904,Philipp-Puth-Straße,,,,,,16,Bergen-Enkheim,680,16.83,16,Ost,18.0,60388,highway,way
Griesheimer Stadtweg 60327 Frankfurt,50.0919079,8.6205979,985,Griesheimer Stadtweg,ungerade,1,,,,1,Gutleutviertel,151,1.04,1,Gallus,16.0,60327,highway,way
Markt 60311 Frankfurt,50.1108673,8.683880235367184,1670,Markt,,,,,,1,Altstadt,10,1.01,1,Ost,1.0,60311,,
Rennbahnpark 60528 Frankfurt,50.08647885,8.653308683289158,3764,Rennbahnpark,,,,,,5,Sachsenhausen-S.,325,5.34,5A,Sachsenhausen,10.0,60528,,
Kurzgasse 60489 Frankfurt,50.1254673,8.6142583,1522,Kurzgasse,,,,,,7,Rödelheim,401,7.55,7,Bockenheim,11.0,60489,highway,way
Unter den Eschen 60596 Frankfurt,50.0915281,8.6711873,2388,Unter den Eschen,,,,,,5,Sachsenhausen-N.,322,5.33,5A,Sachsenhausen,8.0,60596,highway,way
Buchrainplatz 60599 Frankfurt,50.1006931,8.7237386,3319,Buchrainplatz,,,,,,5,Oberrad,380,5.28,5A,Sachsenhausen,8.0,60599,man_made,way
Farbenstraße 65931 Frankfurt,50.0799264,8.5166666,780,Farbenstraße,,,,,,6,Sindlingen,601,6.47,6B,Höchst,17.0,65931,leisure,way
Barbarossastraße 60388 Frankfurt,50.1448602,8.7535788,2858,Barbarossastraße,,,,,,16,Bergen-Enkheim,680,16.83,16,Ost,18.0,60388,leisure,way
Jakob-Leisler-Straße 60320 Frankfurt,50.1348539,8.6648556,1317,Jakob-Leisler-Straße,,,,,,2,Westend-Nord,192,2.09,2,Dornbusch,12.0,60320,,
Am Kappelgarten 60389 Frankfurt,50.1469396,8.728499249681976,133,Am Kappelgarten,,,,,,11,Seckbach,390,11.75,11,Ost,6.0,60389,,
Hebelstraße 60318 Frankfurt,50.1211309,8.6887506,1099,Hebelstraße,,,,,,3,Nordend-West,120,3.21,3,Ost,3.0,60318,,
Jenny-Apolant-Weg 60314 Frankfurt,50.1087128,8.697344,3483,Jenny-Apolant-Weg,,,,,,4,Ostend,140,4.26,4,Ost,5.0,60314,,
Hafnerstraße 65933 Frankfurt,50.0903533,8.6054191,1055,Hafnerstraße,ungerade,,,,,6,Griesheim,541,6.39,6A,Gallus,16.0,65933,,
Erlenbacher Stadtweg 60437 Frankfurt,50.1857553,8.6871057,2649,Erlenbacher Stadtweg,ungerade,,,,,13,Nieder-Erlenbach,640,13.8,13,Nord,14.0,60437,landuse,way
Am Schieferstein 60435 Frankfurt,50.1660738,8.6913509,176,Am Schieferstein,,,,,,10,Berkersheim,500,10.74,10,Nord,14.0,60435,,
Gotenstraße 65929 Frankfurt,50.1102016,8.5410362,969,Gotenstraße,ungerade,1,,29,,6,Höchst,570,6.44,6C,Höchst,17.0,65929,,
Landgraf-Philipp-Straße 60431 Frankfurt,50.1510951,8.6596819,1536,Landgraf-Philipp-Straße,,,,,,9,Eschersheim,452,9.66,9,Dornbusch,12.0,60431,highway,way
Hesselbergweg 65931 Frankfurt,50.0991212,8.5079614,1162,Hesselbergweg,,,,,,6,Zeilsheim,604,6.49,6B,Höchst,17.0,65931,,
Georg-Büchner-Straße 60437 Frankfurt,50.195634,8.6734023,2767,Georg-Büchner-Straße,,,,,,15,Nieder-Eschbach,670,15.82,15,Nord,14.0,60437,,
Weißdornweg 60433 Frankfurt,50.1685219,8.6707885,2473,Weißdornweg,,,,,,10,Frankfurter Berg,492,10.71,10,Nord,14.0,60433,highway,way
Zur Erlenbachaue 60437 Frankfurt,50.2096897,8.705873,3771,Zur Erlenbachaue,,,,,,13,Nieder-Erlenbach,640,13.8,13,Nord,14.0,60437,,
Hofheimer Straße 65931 Frankfurt,50.0965606,8.4885374,1201,Hofheimer Straße,,,,,,6,Zeilsheim,611,6.49,6B,Höchst,17.0,65931,highway,way
Zimmerweg 60325 Frankfurt,50.1127494,8.665496,2567,Zimmerweg,,,,,,2,Westend-Süd,100,2.11,2,Bockenheim,13.0,60325,highway,way
Ernst-Abbe-Straße 60438 Frankfurt,50.1778993,8.6280823,3558,Ernst-Abbe-Straße,,,,,,12,Kalbach-Riedberg,651,12.79,12,Nord,14.0,60438,,
Blauhandgasse 60311 Frankfurt,50.1097953,8.6789304,444,Blauhandgasse,,,,,,1,Altstadt,10,1.01,1,Ost,1.0,60311,,
Frühmessereiweg 65936 Frankfurt,50.1204167,8.5657018,885,Frühmessereiweg,,,,,,6,Sossenheim,631,6.53,6C,Höchst,17.0,65936,,
Robert-Gernhardt-Brücke 60437 Frankfurt,50.1766982,8.660905,3518,Robert-Gernhardt-Brücke,,,,,,12,Kalbach-Riedberg,650,12.79,12,Nord,14.0,60437,highway,way
Diesterwegstraße 60594 Frankfurt,50.1003199,8.6844403,641,Diesterwegstraße,,,,,,5,Sachsenhausen-N.,324,5.32,5A,Sachsenhausen,8.0,60594,highway,way
Quirinsstraße 60599 Frankfurt,50.0999838,8.6932807,1953,Quirinsstraße,,,,,,5,Sachsenhausen-S.,332,5.29,5A,Sachsenhausen,8.0,60599,,
Gelastraße 60388 Frankfurt,50.1426665,8.7374074,913,Gelastraße,,,,,,11,Seckbach,390,11.75,11,Ost,18.0,60388,,
Am Hessen-Center 60388 Frankfurt,50.1422701,8.7527603,2842,Am Hessen-Center,,,,,,16,Bergen-Enkheim,680,16.83,16,Ost,18.0,60388,,
Münsterer Straße 60326 Frankfurt,50.1036815,8.63396,1755,Münsterer Straße,,,,,,1,Gallus,162,1.07,1,Gallus,4.0,60326,amenity,node
Max-Holder-Straße 60437 Frankfurt,50.189629,8.6503809,3466,Max-Holder-Straße,,,,,,12,Kalbach-Riedberg,650,12.79,12,Nord,14.0,60437,,
Bottenhorner Weg 60489 Frankfurt,50.1200356,8.6029527,482,Bottenhorner Weg,,,,,,7,Rödelheim,402,7.56,7,Bockenheim,11.0,60489,,
Rödelheimer Parkweg 60489 Frankfurt,50.1218829,8.615064,2027,Rödelheimer Parkweg,,,,,,7,Rödelheim,401,7.55,7,Bockenheim,11.0,60489,,
Endsbornstraße 60433 Frankfurt,50.1612433,8.6550109,731,Endsbornstraße,,,,,,9,Eschersheim,451,9.65,9,Dornbusch,12.0,60433,,
Comeniusstraße 60389 Frankfurt,50.1335832,8.7061155,604,Comeniusstraße,ungerade,,,,,3,Nordend-Ost,222,3.18,3,Ost,6.0,60389,,
Nidderauer Straße 60388 Frankfurt,50.1588862,8.7545752,2901,Nidderauer Straße,,,,,,16,Bergen-Enkheim,680,16.83,16,Ost,18.0,60388,,
Untermainkai 60311 Frankfurt,50.1075165,8.6756603,2398,Untermainkai,ungerade,1,,5,,1,Altstadt,10,1.01,1,Ost,1.0,60311,highway,way
Platz der Republik 60325 Frankfurt,50.1095267,8.660573,1934,Platz der Republik,,,,,,2,Westend-Süd,100,2.11,2,Bockenheim,13.0,60325,,
Nördlinger Weg 65931 Frankfurt,50.0956184,8.4935799,1821,Nördlinger Weg,,,,,,6,Zeilsheim,611,6.49,6B,Höchst,17.0,65931,,
Germaniastraße 60385 Frankfurt,50.1253237,8.7011687,930,Germaniastraße,ungerade,47,,51,,4,Bornheim,240,4.23,4,Ost,6.0,60385,,
Zur Charlottenburg 60437 Frankfurt,50.2015506,8.7111398,2667,Zur Charlottenburg,,,,,,13,Nieder-Erlenbach,640,13.8,13,Nord,14.0,60437,highway,way
Bruderhofstraße 60388 Frankfurt,50.1506118,8.7561147,2863,Bruderhofstraße,,,,,,16,Bergen-Enkheim,680,16.83,16,Ost,18.0,60388,highway,way
Schönhofstraße 60487 Frankfurt,50.1224933,8.6364719,2163,Schönhofstraße,,,,,,2,Bockenheim,350,2.13,2,Bockenheim,13.0,60487,,
Philippsruher Straße 60314 Frankfurt,50.1144877,8.7068605,1930,Philippsruher Straße,ungerade,,,,,4,Ostend,261,4.27,4,Ost,5.0,60314,highway,way
Eckenheimer Landstraße 60322 Frankfurt,50.1297892,8.6838662,684,Eckenheimer Landstraße,ungerade,165,,,,3,Nordend-West,203,3.16,3,Dornbusch,3.0,60322,,
Berliner Straße 60311 Frankfurt,50.1118274,8.6822265,405,Berliner Straße,ungerade,,,,,1,Altstadt,10,1.01,1,Ost,1.0,60311,,
Urseler Weg 60437 Frankfurt,50.2019765,8.6709097,2749,Urseler Weg,,,,,,15,Nieder-Eschbach,670,15.82,15,Nord,14.0,60437,,
Textorstraße 60594 Frankfurt,50.1022374,8.6884215,2338,Textorstraße,ungerade,7,,83,,5,Sachsenhausen-N.,324,5.32,5A,Sachsenhausen,8.0,60594,highway,way
Unter den Linden 60596 Frankfurt,50.091918,8.6711014,2390,Unter den Linden,,,,,,5,Sachsenhausen-N.,322,5.33,5A,Sachsenhausen,8.0,60596,,
Gustavsallee 65931 Frankfurt,50.0833878,8.5168404,1027,Gustavsallee,,,,,,6,Sindlingen,601,6.47,6B,Höchst,17.0,65931,,
Gustav-Behringer-Straße 60386 Frankfurt,50.1316697,8.7294907,3393,Gustav-Behringer-Straße,,,,,,11,Seckbach,390,11.75,11,Ost,18.0,60386,,
François-Mitterrand-Platz 60329 Frankfurt,50.1108549,8.665228266815621,3563,François-Mitterrand-Platz,,,,,,1,Bahnhofsviertel,90,1.03,1,Gallus,4.0,60329,,
Hynspergstraße 60322 Frankfurt,50.1285177,8.6802311,1246,Hynspergstraße,,,,,,3,Nordend-West,203,3.16,3,Dornbusch,3.0,60322,,
Allendorfer Straße 60433 Frankfurt,50.1529674,8.6674864,29,Allendorfer Straße,ungerade,1,,23,,9,Dornbusch,462,9.69,9,Dornbusch,12.0,60433,leisure,way
Von-Bernus-Park 60487 Frankfurt,50.1216652,8.637449715576555,3726,Von-Bernus-Park,,,,,,2,Bockenheim,350,2.13,2,Bockenheim,13.0,60487,highway,way
Ottostraße 60329 Frankfurt,50.1077297,8.6608161,1884,Ottostraße,,,,,,1,Gallus,152,1.06,1,Gallus,4.0,60329,highway,way
Flinschstraße 60388 Frankfurt,50.1354369,8.7354967,813,Flinschstraße,,,,,,11,Seckbach,390,11.75,11,Ost,18.0,60388,,
